{"type":"FeatureCollection", "features": [
    {"type":"Feature","geometry":{"type":"Point","coordinates":[-6.5671735,34.2502486]},"properties":{"ID":"n10039060866","NOM":"I.s.t.a.","NATURE":"Enseignement supérieur","SOURCE":"OpenStreetMap","DATE_MAJ":"2022-09-20"}},
    {"type":"Feature","geometry":{"type":"Point","coordinates":[-7.6640835,33.5652946]},"properties":{"ID":"n10567644793","NOM":"ecole al kindi BTS","NATURE":"Enseignement supérieur","SOURCE":"OpenStreetMap","DATE_MAJ":"2023-01-19"}},
    {"type":"Feature","geometry":{"type":"Point","coordinates":[-6.8431746,33.999591800000005]},"properties":{"ID":"n1421448836","NOM":"Université mohamed V","NATURE":"Enseignement supérieur","SOURCE":"OpenStreetMap","DATE_MAJ":"2020-01-08"}},
    {"type":"Feature","geometry":{"type":"Point","coordinates":[-6.8381851000000005,34.007744]},"properties":{"ID":"n1761182094","NOM":"Université Mohamed 5 Rabat","NATURE":"Enseignement supérieur","SOURCE":"OpenStreetMap","DATE_MAJ":"2021-02-19"}},
    {"type":"Feature","geometry":{"type":"Point","coordinates":[-6.829258200000001,34.015923300000004]},"properties":{"ID":"n2609792510","NOM":"EMSI","NATURE":"Enseignement supérieur","SOURCE":"OpenStreetMap","DATE_MAJ":"2018-07-23"}},
    {"type":"Feature","geometry":{"type":"Point","coordinates":[-6.365276400000001,32.3317508]},"properties":{"ID":"n2615970407","NOM":"Baby House","NATURE":"Enseignement supérieur","SOURCE":"OpenStreetMap","DATE_MAJ":"2020-11-24"}},
    {"type":"Feature","geometry":{"type":"Point","coordinates":[-7.6354731000000005,33.5908237]},"properties":{"ID":"n2714802293","NOM":"college lasalle","NATURE":"Enseignement supérieur","SOURCE":"OpenStreetMap","DATE_MAJ":"2014-03-12"}},
    {"type":"Feature","geometry":{"type":"Point","coordinates":[-7.6348187,33.5918068]},"properties":{"ID":"n2714802295","NOM":"esiac","NATURE":"Enseignement supérieur","SOURCE":"OpenStreetMap","DATE_MAJ":"2014-03-12"}},
    {"type":"Feature","geometry":{"type":"Point","coordinates":[-7.632774400000001,33.5977896]},"properties":{"ID":"n2874898043","NOM":"Groupe Scolaire El Farabi II","NATURE":"Enseignement supérieur","SOURCE":"OpenStreetMap","DATE_MAJ":"2014-05-22"}},
    {"type":"Feature","geometry":{"type":"Point","coordinates":[-7.528917300000001,33.6099511]},"properties":{"ID":"n2892400980","NOM":"OFPPT","NATURE":"Enseignement supérieur","SOURCE":"OpenStreetMap","DATE_MAJ":"2019-03-16"}},
    {"type":"Feature","geometry":{"type":"Point","coordinates":[-7.530215500000001,33.5939556]},"properties":{"ID":"n2892400981","NOM":"ENCG Casablanca","NATURE":"Enseignement supérieur","SOURCE":"OpenStreetMap","DATE_MAJ":"2014-05-31"}},
    {"type":"Feature","geometry":{"type":"Point","coordinates":[-7.6254293,33.5761747]},"properties":{"ID":"n2902579298","NOM":"institut de formation de carrière de santé","NATURE":"Enseignement supérieur","SOURCE":"OpenStreetMap","DATE_MAJ":"2014-06-06"}},
    {"type":"Feature","geometry":{"type":"Point","coordinates":[-6.8308045,34.0218089]},"properties":{"ID":"n3111466402","NOM":"École Supérieure d'informatique, de Management et de Télécommunications","NATURE":"Enseignement supérieur","SOURCE":"OpenStreetMap","DATE_MAJ":"2020-10-29"}},
    {"type":"Feature","geometry":{"type":"Point","coordinates":[-5.5973436,33.888431700000005]},"properties":{"ID":"n3124687004","NOM":"Ecole Normale Supérieure (ENS)","NATURE":"Enseignement supérieur","SOURCE":"OpenStreetMap","DATE_MAJ":"2014-10-11"}},
    {"type":"Feature","geometry":{"type":"Point","coordinates":[-5.5646795000000004,33.8807034]},"properties":{"ID":"n3125505773","NOM":"CRMEF (Cfi)","NATURE":"Enseignement supérieur","SOURCE":"OpenStreetMap","DATE_MAJ":"2016-02-16"}},
    {"type":"Feature","geometry":{"type":"Point","coordinates":[-5.5481388,33.8619773]},"properties":{"ID":"n3127496914","NOM":"CPGE - privées (Carnot)","NATURE":"Enseignement supérieur","SOURCE":"OpenStreetMap","DATE_MAJ":"2015-03-02"}},
    {"type":"Feature","geometry":{"type":"Point","coordinates":[-5.2685458,35.167315200000004]},"properties":{"ID":"n3154322976","NOM":"Institut Chaouen Universal School","NATURE":"Enseignement supérieur","SOURCE":"OpenStreetMap","DATE_MAJ":"2014-10-28"}},
    {"type":"Feature","geometry":{"type":"Point","coordinates":[-7.627491600000001,33.5927542]},"properties":{"ID":"n3207439278","NOM":"ESCA-Ecole de Management","NATURE":"Enseignement supérieur","SOURCE":"OpenStreetMap","DATE_MAJ":"2016-02-18"}},
    {"type":"Feature","geometry":{"type":"Point","coordinates":[-4.9735649,34.065125800000004]},"properties":{"ID":"n3217569206","NOM":"Madrasa al-Attarine","NATURE":"Enseignement supérieur","SOURCE":"OpenStreetMap","DATE_MAJ":"2018-10-25"}},
    {"type":"Feature","geometry":{"type":"Point","coordinates":[-6.8230881000000005,34.0212242]},"properties":{"ID":"n3810888859","NOM":"Ecole des sciences sociales Paramedicales","NATURE":"Enseignement supérieur","SOURCE":"OpenStreetMap","DATE_MAJ":"2015-10-31"}},
    {"type":"Feature","geometry":{"type":"Point","coordinates":[-7.353346800000001,33.7064018]},"properties":{"ID":"n3908234058","NOM":"كلية العلوم و التقنيات المحمدية","NATURE":"Enseignement supérieur","SOURCE":"OpenStreetMap","DATE_MAJ":"2021-04-10"}},
    {"type":"Feature","geometry":{"type":"Point","coordinates":[-7.373866100000001,33.7030067]},"properties":{"ID":"n3908234585","NOM":"Université hassan II","NATURE":"Enseignement supérieur","SOURCE":"OpenStreetMap","DATE_MAJ":"2015-12-24"}},
    {"type":"Feature","geometry":{"type":"Point","coordinates":[-7.616608800000001,33.594650900000005]},"properties":{"ID":"n4193901867","NOM":"Goethe Institut Casablanca","NATURE":"Enseignement supérieur","SOURCE":"OpenStreetMap","DATE_MAJ":"2022-05-12"}},
    {"type":"Feature","geometry":{"type":"Point","coordinates":[-7.6150780000000005,33.595157400000005]},"properties":{"ID":"n4193937770","NOM":"Institut dentaire marocain (icf)","NATURE":"Enseignement supérieur","SOURCE":"OpenStreetMap","DATE_MAJ":"2016-05-18"}},
    {"type":"Feature","geometry":{"type":"Point","coordinates":[-6.363676900000001,32.3321679]},"properties":{"ID":"n4228693613","NOM":"Etablissement Abou Alkassem Assaomai","NATURE":"Enseignement supérieur","SOURCE":"OpenStreetMap","DATE_MAJ":"2016-06-08"}},
    {"type":"Feature","geometry":{"type":"Point","coordinates":[-6.3627813,32.3311411]},"properties":{"ID":"n4228710423","NOM":"Etablissement Averroes","NATURE":"Enseignement supérieur","SOURCE":"OpenStreetMap","DATE_MAJ":"2020-11-24"}},
    {"type":"Feature","geometry":{"type":"Point","coordinates":[-6.364780100000001,32.3340965]},"properties":{"ID":"n4232163094","NOM":"Sup MTI","NATURE":"Enseignement supérieur","SOURCE":"OpenStreetMap","DATE_MAJ":"2016-06-08"}},
    {"type":"Feature","geometry":{"type":"Point","coordinates":[-6.3637234000000005,32.332804700000004]},"properties":{"ID":"n4232200581","NOM":"Ecole EMSET","NATURE":"Enseignement supérieur","SOURCE":"OpenStreetMap","DATE_MAJ":"2020-11-24"}},
    {"type":"Feature","geometry":{"type":"Point","coordinates":[-6.3654453,32.3344784]},"properties":{"ID":"n4232225562","NOM":"Atlas unives city","NATURE":"Enseignement supérieur","SOURCE":"OpenStreetMap","DATE_MAJ":"2016-06-12"}},
    {"type":"Feature","geometry":{"type":"Point","coordinates":[-6.3645009,32.3350394]},"properties":{"ID":"n4232946747","NOM":"LOZER","NATURE":"Enseignement supérieur","SOURCE":"OpenStreetMap","DATE_MAJ":"2016-06-10"}},
    {"type":"Feature","geometry":{"type":"Point","coordinates":[-6.365763500000001,32.332474000000005]},"properties":{"ID":"n4233523473","NOM":"I.F.PRO","NATURE":"Enseignement supérieur","SOURCE":"OpenStreetMap","DATE_MAJ":"2016-06-10"}},
    {"type":"Feature","geometry":{"type":"Point","coordinates":[-6.3657481,32.3355771]},"properties":{"ID":"n4233541631","NOM":"Ecole des infirmiers IPARM","NATURE":"Enseignement supérieur","SOURCE":"OpenStreetMap","DATE_MAJ":"2016-06-15"}},
    {"type":"Feature","geometry":{"type":"Point","coordinates":[-6.366070000000001,32.3356293]},"properties":{"ID":"n4233545869","NOM":"ECO SIG","NATURE":"Enseignement supérieur","SOURCE":"OpenStreetMap","DATE_MAJ":"2016-06-12"}},
    {"type":"Feature","geometry":{"type":"Point","coordinates":[-1.2277605,32.114054800000005]},"properties":{"ID":"n4415795005","NOM":"Centre de Formation en Construction Traditionnelle","NATURE":"Enseignement supérieur","SOURCE":"OpenStreetMap","DATE_MAJ":"2018-10-25"}},
    {"type":"Feature","geometry":{"type":"Point","coordinates":[-7.6207922,32.9974928]},"properties":{"ID":"n4538659214","NOM":"IGA","NATURE":"Enseignement supérieur","SOURCE":"OpenStreetMap","DATE_MAJ":"2016-12-04"}},
    {"type":"Feature","geometry":{"type":"Point","coordinates":[-6.7934432000000005,31.388854900000002]},"properties":{"ID":"n4730472948","NOM":"École","NATURE":"Enseignement supérieur","SOURCE":"OpenStreetMap","DATE_MAJ":"2017-03-12"}},
    {"type":"Feature","geometry":{"type":"Point","coordinates":[-5.5806475,33.858257300000005]},"properties":{"ID":"n4865958437","NOM":"centre de formation: métiers du bâtiment","NATURE":"Enseignement supérieur","SOURCE":"OpenStreetMap","DATE_MAJ":"2017-05-20"}},
    {"type":"Feature","geometry":{"type":"Point","coordinates":[-6.846541800000001,34.0007394]},"properties":{"ID":"n4988758724","NOM":"Banalitech formation","NATURE":"Enseignement supérieur","SOURCE":"OpenStreetMap","DATE_MAJ":"2018-10-22"}},
    {"type":"Feature","geometry":{"type":"Point","coordinates":[-5.0325598000000005,34.0213297]},"properties":{"ID":"n5112909550","NOM":"école Hamza ibn Abdelmotaleb","NATURE":"Enseignement supérieur","SOURCE":"OpenStreetMap","DATE_MAJ":"2018-10-25"}},
    {"type":"Feature","geometry":{"type":"Point","coordinates":[-7.5220855,33.5744758]},"properties":{"ID":"n5291521523","NOM":"OFPPT Sidi Moumen","NATURE":"Enseignement supérieur","SOURCE":"OpenStreetMap","DATE_MAJ":"2017-12-18"}},
    {"type":"Feature","geometry":{"type":"Point","coordinates":[-7.553699000000001,33.5925406]},"properties":{"ID":"n5337674385","NOM":"Lycée abdelkarim al khattabi","NATURE":"Enseignement supérieur","SOURCE":"OpenStreetMap","DATE_MAJ":"2018-01-16"}},
    {"type":"Feature","geometry":{"type":"Point","coordinates":[-7.6402596,33.5351918]},"properties":{"ID":"n5422740635","NOM":"TBS - Toulouse Business School","NATURE":"Enseignement supérieur","SOURCE":"OpenStreetMap","DATE_MAJ":"2022-05-26"}},
    {"type":"Feature","geometry":{"type":"Point","coordinates":[-7.639798300000001,33.5352923]},"properties":{"ID":"n5422740637","NOM":"ESIG","NATURE":"Enseignement supérieur","SOURCE":"OpenStreetMap","DATE_MAJ":"2018-11-19"}},
    {"type":"Feature","geometry":{"type":"Point","coordinates":[-2.9427516000000002,35.2944887]},"properties":{"ID":"n5553517338","NOM":"Universidad Nacional de Educación a Distancia (UNED) - Centro de Melilla","NATURE":"Enseignement supérieur","SOURCE":"OpenStreetMap","DATE_MAJ":"2018-04-15"}},
    {"type":"Feature","geometry":{"type":"Point","coordinates":[-7.6478925,33.5874332]},"properties":{"ID":"n5652642973","NOM":"Pablo Picasso","NATURE":"Enseignement supérieur","SOURCE":"OpenStreetMap","DATE_MAJ":"2018-06-19"}},
    {"type":"Feature","geometry":{"type":"Point","coordinates":[-6.144172800000001,35.148168500000004]},"properties":{"ID":"n6246176186","NOM":"Multi-disciplinary faculty Larache","NATURE":"Enseignement supérieur","SOURCE":"OpenStreetMap","DATE_MAJ":"2019-01-30"}},
    {"type":"Feature","geometry":{"type":"Point","coordinates":[-5.2741599,35.6183752]},"properties":{"ID":"n6251847700","NOM":"Universiteit Bussiness","NATURE":"Enseignement supérieur","SOURCE":"OpenStreetMap","DATE_MAJ":"2019-02-01"}},
    {"type":"Feature","geometry":{"type":"Point","coordinates":[-6.8721515,33.976214]},"properties":{"ID":"n7006668319","NOM":"Institut Mohammed Vi De La Formation Des Imams Mourchidines Et Mourchidates","NATURE":"Enseignement supérieur","SOURCE":"OpenStreetMap","DATE_MAJ":"2019-11-24"}},
    {"type":"Feature","geometry":{"type":"Point","coordinates":[-5.920538400000001,35.6850982]},"properties":{"ID":"n7126270785","NOM":"كلية الطب و الصيدلة بطنجة","NATURE":"Enseignement supérieur","SOURCE":"OpenStreetMap","DATE_MAJ":"2020-11-19"}},
    {"type":"Feature","geometry":{"type":"Point","coordinates":[-7.497985000000001,33.6143197]},"properties":{"ID":"n7168974697","NOM":"Ecole coiffure","NATURE":"Enseignement supérieur","SOURCE":"OpenStreetMap","DATE_MAJ":"2020-01-29"}},
    {"type":"Feature","geometry":{"type":"Point","coordinates":[-2.9002143,34.3968696]},"properties":{"ID":"n7529571485","NOM":"التكوين المهني","NATURE":"Enseignement supérieur","SOURCE":"OpenStreetMap","DATE_MAJ":"2020-11-19"}},
    {"type":"Feature","geometry":{"type":"Point","coordinates":[-9.5755937,30.4158776]},"properties":{"ID":"n7643526485","NOM":"Groupe efet","NATURE":"Enseignement supérieur","SOURCE":"OpenStreetMap","DATE_MAJ":"2020-11-22"}},
    {"type":"Feature","geometry":{"type":"Point","coordinates":[-7.1109524,33.606954200000004]},"properties":{"ID":"n7853414602","NOM":"مدرسة تكوين المعلمين","NATURE":"Enseignement supérieur","SOURCE":"OpenStreetMap","DATE_MAJ":"2020-11-21"}},
    {"type":"Feature","geometry":{"type":"Point","coordinates":[-6.3197627,32.375263600000004]},"properties":{"ID":"n7899796026","NOM":"faculté polydisciplinaire Beni Mellal","NATURE":"Enseignement supérieur","SOURCE":"OpenStreetMap","DATE_MAJ":"2020-09-12"}},
    {"type":"Feature","geometry":{"type":"Point","coordinates":[-11.0946899,28.435873100000002]},"properties":{"ID":"n8213844529","NOM":"L'école La marche verte Privé","NATURE":"Enseignement supérieur","SOURCE":"OpenStreetMap","DATE_MAJ":"2020-12-10"}},
    {"type":"Feature","geometry":{"type":"Point","coordinates":[-4.9593469,34.004332600000005]},"properties":{"ID":"n8244893628","NOM":"Ecole Nationale d'Architecture de Fes","NATURE":"Enseignement supérieur","SOURCE":"OpenStreetMap","DATE_MAJ":"2020-12-20"}},
    {"type":"Feature","geometry":{"type":"Point","coordinates":[-4.975998000000001,34.029091900000005]},"properties":{"ID":"n8417347094","NOM":"institut des sciences du sport","NATURE":"Enseignement supérieur","SOURCE":"OpenStreetMap","DATE_MAJ":"2021-02-12"}},
    {"type":"Feature","geometry":{"type":"Point","coordinates":[-6.7240367,33.983561]},"properties":{"ID":"n8598506402","NOM":"IHECS Afrique","NATURE":"Enseignement supérieur","SOURCE":"OpenStreetMap","DATE_MAJ":"2022-11-01"}},
    {"type":"Feature","geometry":{"type":"Point","coordinates":[-6.8716939,33.977194100000006]},"properties":{"ID":"n8738795365","NOM":"Institut National des Sciences de l'Archéologie et du Patrimoine","NATURE":"Enseignement supérieur","SOURCE":"OpenStreetMap","DATE_MAJ":"2021-05-17"}},
    {"type":"Feature","geometry":{"type":"Point","coordinates":[-7.6637519,33.5456171]},"properties":{"ID":"n8755743384","NOM":"Ecole Polytechnique de Casablanca","NATURE":"Enseignement supérieur","SOURCE":"OpenStreetMap","DATE_MAJ":"2021-05-22"}},
    {"type":"Feature","geometry":{"type":"Point","coordinates":[-7.667131400000001,33.550892600000005]},"properties":{"ID":"n8755743385","NOM":"Université Mohammed VI des Sciences de la Santé","NATURE":"Enseignement supérieur","SOURCE":"OpenStreetMap","DATE_MAJ":"2021-05-22"}},
    {"type":"Feature","geometry":{"type":"Point","coordinates":[-7.664187600000001,33.539804000000004]},"properties":{"ID":"n8756483698","NOM":"Ecole Supérieure des Industries du Textile et de l'Habiillement","NATURE":"Enseignement supérieur","SOURCE":"OpenStreetMap","DATE_MAJ":"2021-05-22"}},
    {"type":"Feature","geometry":{"type":"Point","coordinates":[-7.6565627,33.5454024]},"properties":{"ID":"n8756483702","NOM":"Faculté des sciences Aïn-Chock","NATURE":"Enseignement supérieur","SOURCE":"OpenStreetMap","DATE_MAJ":"2021-05-22"}},
    {"type":"Feature","geometry":{"type":"Point","coordinates":[-7.527801800000001,33.6133542]},"properties":{"ID":"n8875078226","NOM":"ISITS","NATURE":"Enseignement supérieur","SOURCE":"OpenStreetMap","DATE_MAJ":"2021-06-29"}},
    {"type":"Feature","geometry":{"type":"Point","coordinates":[-7.6145825,33.5963197]},"properties":{"ID":"n8887938234","NOM":"IDDTL","NATURE":"Enseignement supérieur","SOURCE":"OpenStreetMap","DATE_MAJ":"2021-07-02"}},
    {"type":"Feature","geometry":{"type":"Point","coordinates":[-7.6144752,33.5962951]},"properties":{"ID":"n8887938235","NOM":"EDD","NATURE":"Enseignement supérieur","SOURCE":"OpenStreetMap","DATE_MAJ":"2021-07-02"}},
    {"type":"Feature","geometry":{"type":"Point","coordinates":[-6.864777,33.978201000000006]},"properties":{"ID":"n9109379840","NOM":"Institut agronomique et vétérinaire Hassan-II","NATURE":"Enseignement supérieur","SOURCE":"OpenStreetMap","DATE_MAJ":"2022-08-11"}},
    {"type":"Feature","geometry":{"type":"Point","coordinates":[-5.0447343,34.0507155]},"properties":{"ID":"n9404769925","NOM":"Office de la Formation Professionnelle et de la Promotion du Travail","NATURE":"Enseignement supérieur","SOURCE":"OpenStreetMap","DATE_MAJ":"2022-01-09"}},
    {"type":"Feature","geometry":{"type":"Point","coordinates":[-5.0649046,34.0442138]},"properties":{"ID":"n9404769926","NOM":"Université Euro Méditerranéenne de Fès","NATURE":"Enseignement supérieur","SOURCE":"OpenStreetMap","DATE_MAJ":"2022-01-09"}},
    {"type":"Feature","geometry":{"type":"Point","coordinates":[-6.8698911,33.9792831]},"properties":{"ID":"n9456950560","NOM":"ISMAC","NATURE":"Enseignement supérieur","SOURCE":"OpenStreetMap","DATE_MAJ":"2022-01-29"}},
    {"type":"Feature","geometry":{"type":"Point","coordinates":[-6.7236481,33.983789]},"properties":{"ID":"n9973592529","NOM":"Ecole d'Architecture de Rabat","NATURE":"Enseignement supérieur","SOURCE":"OpenStreetMap","DATE_MAJ":"2022-08-23"}},
    {"type":"Feature","geometry":{"type":"Point","coordinates":[-6.876507478072387,33.97082528819635]},"properties":{"ID":"w1009318321","NOM":"الحي الجامعي الدولي","NATURE":"Enseignement supérieur","SOURCE":"OpenStreetMap","DATE_MAJ":"2021-12-29"}},
    {"type":"Feature","geometry":null,"properties":{"ID":"w1024004837","NOM":"Agricultural's High School","NATURE":"Enseignement supérieur","SOURCE":"OpenStreetMap","DATE_MAJ":"2022-01-23"}},
    {"type":"Feature","geometry":{"type":"Point","coordinates":[-9.225354180671804,32.30832605]},"properties":{"ID":"w119922892","NOM":"Centre de formation des instituteurs","NATURE":"Enseignement supérieur","SOURCE":"OpenStreetMap","DATE_MAJ":"2018-10-18"}},
    {"type":"Feature","geometry":{"type":"Point","coordinates":[-9.225855133955509,32.2938534]},"properties":{"ID":"w119935026","NOM":"Centre Pédagogique Régionale Mohamed V","NATURE":"Enseignement supérieur","SOURCE":"OpenStreetMap","DATE_MAJ":"2016-03-22"}},
    {"type":"Feature","geometry":{"type":"Point","coordinates":[-9.230612560574894,32.28296115]},"properties":{"ID":"w120290747","NOM":"l'Ecole Supperieur du Comerce et de Gestion","NATURE":"Enseignement supérieur","SOURCE":"OpenStreetMap","DATE_MAJ":"2013-01-14"}},
    {"type":"Feature","geometry":{"type":"Point","coordinates":[-9.216115873185856,32.307532550000005]},"properties":{"ID":"w120851570","NOM":"EST","NATURE":"Enseignement supérieur","SOURCE":"OpenStreetMap","DATE_MAJ":"2017-04-08"}},
    {"type":"Feature","geometry":{"type":"Point","coordinates":[-9.2186431007407,32.298979900000006]},"properties":{"ID":"w121252611","NOM":"ISTA 1","NATURE":"Enseignement supérieur","SOURCE":"OpenStreetMap","DATE_MAJ":"2017-04-08"}},
    {"type":"Feature","geometry":{"type":"Point","coordinates":[-9.214978003347404,32.3057446]},"properties":{"ID":"w122048438","NOM":"Institut Spécialisé de Technologie Appliquée","NATURE":"Enseignement supérieur","SOURCE":"OpenStreetMap","DATE_MAJ":"2018-10-19"}},
    {"type":"Feature","geometry":{"type":"Point","coordinates":[-9.23671643877356,32.28646535]},"properties":{"ID":"w122266671","NOM":"Institut de formation aux carrière de santé (poly .sage femme) safi","NATURE":"Enseignement supérieur","SOURCE":"OpenStreetMap","DATE_MAJ":"2019-04-20"}},
    {"type":"Feature","geometry":{"type":"Point","coordinates":[-9.236685904247263,32.285796250000004]},"properties":{"ID":"w122266679","NOM":"ecole des infirmies d etat (poly. sage femme) safi","NATURE":"Enseignement supérieur","SOURCE":"OpenStreetMap","DATE_MAJ":"2011-07-19"}},
    {"type":"Feature","geometry":{"type":"Point","coordinates":[-8.00288464076543,31.6656658]},"properties":{"ID":"w127127585","NOM":"Club Cadi Ayyad","NATURE":"Enseignement supérieur","SOURCE":"OpenStreetMap","DATE_MAJ":"2011-08-22"}},
    {"type":"Feature","geometry":{"type":"Point","coordinates":[-7.999338846643351,31.66433855]},"properties":{"ID":"w127127590","NOM":"Faculté Des Sciences Économiques Et Juridiques","NATURE":"Enseignement supérieur","SOURCE":"OpenStreetMap","DATE_MAJ":"2011-08-22"}},
    {"type":"Feature","geometry":{"type":"Point","coordinates":[-7.997836824786084,31.66676855]},"properties":{"ID":"w127127593","NOM":"Faculté des Lettres Modernes et des Sciences Humaines","NATURE":"Enseignement supérieur","SOURCE":"OpenStreetMap","DATE_MAJ":"2018-03-15"}},
    {"type":"Feature","geometry":{"type":"Point","coordinates":[-8.000526337916666,31.666055749999998]},"properties":{"ID":"w127127607","NOM":"Cité universitaire Cadi Ayyad","NATURE":"Enseignement supérieur","SOURCE":"OpenStreetMap","DATE_MAJ":"2020-12-19"}},
    {"type":"Feature","geometry":{"type":"Point","coordinates":[-8.003675012881493,31.66673775]},"properties":{"ID":"w127128015","NOM":"École Superieur des Arts Visuels","NATURE":"Enseignement supérieur","SOURCE":"OpenStreetMap","DATE_MAJ":"2011-08-22"}},
    {"type":"Feature","geometry":{"type":"Point","coordinates":[-7.659621460073563,33.5419806]},"properties":{"ID":"w140654846","NOM":"Université Hassan II Ain Chock","NATURE":"Enseignement supérieur","SOURCE":"OpenStreetMap","DATE_MAJ":"2018-10-18"}},
    {"type":"Feature","geometry":{"type":"Point","coordinates":[-7.664190549705013,33.539981850000004]},"properties":{"ID":"w140654859","NOM":"Ecole supérieure des industries de textile et de l'habillement","NATURE":"Enseignement supérieur","SOURCE":"OpenStreetMap","DATE_MAJ":"2017-08-02"}},
    {"type":"Feature","geometry":{"type":"Point","coordinates":[-7.656725468496061,33.539338]},"properties":{"ID":"w140654865","NOM":"École Nationale Supérieure d'Électricité et de Mécanique","NATURE":"Enseignement supérieur","SOURCE":"OpenStreetMap","DATE_MAJ":"2016-12-24"}},
    {"type":"Feature","geometry":{"type":"Point","coordinates":[-7.653512303685806,33.54533025]},"properties":{"ID":"w140654866","NOM":"Institut Supérieur d'Etudes Maritimes","NATURE":"Enseignement supérieur","SOURCE":"OpenStreetMap","DATE_MAJ":"2011-12-11"}},
    {"type":"Feature","geometry":{"type":"Point","coordinates":[-7.658971474064014,33.5392508]},"properties":{"ID":"w140654867","NOM":"École Normale Supérieure","NATURE":"Enseignement supérieur","SOURCE":"OpenStreetMap","DATE_MAJ":"2016-12-24"}},
    {"type":"Feature","geometry":{"type":"Point","coordinates":[-7.65530335533002,33.5414104]},"properties":{"ID":"w140654869","NOM":"Ecole Supérieure de Technologie Casablanca","NATURE":"Enseignement supérieur","SOURCE":"OpenStreetMap","DATE_MAJ":"2011-12-11"}},
    {"type":"Feature","geometry":{"type":"Point","coordinates":[-7.650317508015618,33.548577550000005]},"properties":{"ID":"w140654873","NOM":"Ecole Hassania des travaux publics","NATURE":"Enseignement supérieur","SOURCE":"OpenStreetMap","DATE_MAJ":"2020-05-25"}},
    {"type":"Feature","geometry":{"type":"Point","coordinates":[-6.7409431555064,33.9929836]},"properties":{"ID":"w150144726","NOM":"Istea Sala Al Jadida","NATURE":"Enseignement supérieur","SOURCE":"OpenStreetMap","DATE_MAJ":"2016-02-16"}},
    {"type":"Feature","geometry":{"type":"Point","coordinates":[-6.861962511693196,33.990360499999994]},"properties":{"ID":"w152609309","NOM":"Faculté des Sciences de l'Éducation","NATURE":"Enseignement supérieur","SOURCE":"OpenStreetMap","DATE_MAJ":"2021-09-21"}},
    {"type":"Feature","geometry":{"type":"Point","coordinates":[-6.8645401761699745,33.9873212]},"properties":{"ID":"w152609311","NOM":"Faculté des sciences juridiques, économiques et sociales","NATURE":"Enseignement supérieur","SOURCE":"OpenStreetMap","DATE_MAJ":"2021-09-21"}},
    {"type":"Feature","geometry":{"type":"Point","coordinates":[-6.862681867126515,33.98180805]},"properties":{"ID":"w152609313","NOM":"Institut National de Statistique et d'Economie Appliquée","NATURE":"Enseignement supérieur","SOURCE":"OpenStreetMap","DATE_MAJ":"2021-10-03"}},
    {"type":"Feature","geometry":{"type":"Point","coordinates":[-6.86151204866107,33.987276800000004]},"properties":{"ID":"w152609320","NOM":"Institut National d'Aménagement et d'Urbanisme","NATURE":"Enseignement supérieur","SOURCE":"OpenStreetMap","DATE_MAJ":"2022-03-12"}},
    {"type":"Feature","geometry":{"type":"Point","coordinates":[-6.857039702545574,33.98422615]},"properties":{"ID":"w152610309","NOM":"كلية الطب والصيدلة بالرباط","NATURE":"Enseignement supérieur","SOURCE":"OpenStreetMap","DATE_MAJ":"2021-09-01"}},
    {"type":"Feature","geometry":{"type":"Point","coordinates":[-8.487718972055617,33.2266187]},"properties":{"ID":"w166332497","NOM":"Chouaib Doukkali University","NATURE":"Enseignement supérieur","SOURCE":"OpenStreetMap","DATE_MAJ":"2020-01-08"}},
    {"type":"Feature","geometry":{"type":"Point","coordinates":[-4.957300442627246,34.004934]},"properties":{"ID":"w167605627","NOM":"Ismotica","NATURE":"Enseignement supérieur","SOURCE":"OpenStreetMap","DATE_MAJ":"2022-07-05"}},
    {"type":"Feature","geometry":{"type":"Point","coordinates":[-7.6078027930094,33.57471755]},"properties":{"ID":"w167628018","NOM":"batiment hay dakhla","NATURE":"Enseignement supérieur","SOURCE":"OpenStreetMap","DATE_MAJ":"2022-06-08"}},
    {"type":"Feature","geometry":{"type":"Point","coordinates":[-7.607468890425986,33.5784321]},"properties":{"ID":"w167628019","NOM":"batiment hay dakhla","NATURE":"Enseignement supérieur","SOURCE":"OpenStreetMap","DATE_MAJ":"2022-06-08"}},
    {"type":"Feature","geometry":{"type":"Point","coordinates":[-10.082881856659393,29.0014032]},"properties":{"ID":"w190824961","NOM":"École Supérleure de Technologie","NATURE":"Enseignement supérieur","SOURCE":"OpenStreetMap","DATE_MAJ":"2017-12-15"}},
    {"type":"Feature","geometry":{"type":"Point","coordinates":[-6.854821714544659,34.000318050000004]},"properties":{"ID":"w198052509","NOM":"École Nationale Supérieure des Mines de Rabat","NATURE":"Enseignement supérieur","SOURCE":"OpenStreetMap","DATE_MAJ":"2022-12-08"}},
    {"type":"Feature","geometry":{"type":"Point","coordinates":[-6.784850446806967,34.03551295]},"properties":{"ID":"w201494271","NOM":"ISTA Hay Salam","NATURE":"Enseignement supérieur","SOURCE":"OpenStreetMap","DATE_MAJ":"2021-03-08"}},
    {"type":"Feature","geometry":{"type":"Point","coordinates":[-7.622089238882606,33.57432025]},"properties":{"ID":"w214267809","NOM":"Faculté de Médecine et de Pharmacie de Casablanca","NATURE":"Enseignement supérieur","SOURCE":"OpenStreetMap","DATE_MAJ":"2018-10-25"}},
    {"type":"Feature","geometry":{"type":"Point","coordinates":[-9.22073150568939,30.39651895]},"properties":{"ID":"w230583241","NOM":"Abdellah Chafchaouni","NATURE":"Enseignement supérieur","SOURCE":"OpenStreetMap","DATE_MAJ":"2013-07-20"}},
    {"type":"Feature","geometry":{"type":"Point","coordinates":[-1.0042617714285713,32.5154754]},"properties":{"ID":"w244360728","NOM":"Centre d'accueil et de formation des filles et femmes à Ich","NATURE":"Enseignement supérieur","SOURCE":"OpenStreetMap","DATE_MAJ":"2016-02-04"}},
    {"type":"Feature","geometry":{"type":"Point","coordinates":[-6.822352714388137,34.014494400000004]},"properties":{"ID":"w250458977","NOM":"Colegio Español de Rabat المدرسة الإسبانية بالرباط","NATURE":"Enseignement supérieur","SOURCE":"OpenStreetMap","DATE_MAJ":"2020-12-19"}},
    {"type":"Feature","geometry":{"type":"Point","coordinates":[-6.8930271524119116,33.9310102]},"properties":{"ID":"w250470220","NOM":"ISTA Temara","NATURE":"Enseignement supérieur","SOURCE":"OpenStreetMap","DATE_MAJ":"2021-04-12"}},
    {"type":"Feature","geometry":{"type":"Point","coordinates":[-1.9108957492601877,34.65855765]},"properties":{"ID":"w251532785","NOM":"Université Mohammed Premier Oujda - Faculté de Médecine et de Pharmacie","NATURE":"Enseignement supérieur","SOURCE":"OpenStreetMap","DATE_MAJ":"2020-11-02"}},
    {"type":"Feature","geometry":{"type":"Point","coordinates":[-2.922513632220909,34.4146628]},"properties":{"ID":"w258384370","NOM":"Institut spécialisé dans les métiers du transport routier et la logistique","NATURE":"Enseignement supérieur","SOURCE":"OpenStreetMap","DATE_MAJ":"2014-01-25"}},
    {"type":"Feature","geometry":{"type":"Point","coordinates":[-7.5408675811989765,33.5659834]},"properties":{"ID":"w269570440","NOM":"Faculté des Sciences Ben M'sik","NATURE":"Enseignement supérieur","SOURCE":"OpenStreetMap","DATE_MAJ":"2018-04-03"}},
    {"type":"Feature","geometry":{"type":"Point","coordinates":[-6.876752862622162,33.9688544]},"properties":{"ID":"w280121158","NOM":"المدرسة الوطنية العليا للفنون والمهن بالرباط","NATURE":"Enseignement supérieur","SOURCE":"OpenStreetMap","DATE_MAJ":"2021-12-29"}},
    {"type":"Feature","geometry":{"type":"Point","coordinates":[-6.878345296337216,33.97057975]},"properties":{"ID":"w280122814","NOM":"Centre National des Examens","NATURE":"Enseignement supérieur","SOURCE":"OpenStreetMap","DATE_MAJ":"2021-12-29"}},
    {"type":"Feature","geometry":{"type":"Point","coordinates":[-6.8810782926082865,33.9666931]},"properties":{"ID":"w280285432","NOM":"Institut Spécialisé de Technologie Appliquée","NATURE":"Enseignement supérieur","SOURCE":"OpenStreetMap","DATE_MAJ":"2022-12-15"}},
    {"type":"Feature","geometry":{"type":"Point","coordinates":[-7.531446175661756,33.593325300000004]},"properties":{"ID":"w285573275","NOM":"Faculté de Aïn Sebaa","NATURE":"Enseignement supérieur","SOURCE":"OpenStreetMap","DATE_MAJ":"2016-05-08"}},
    {"type":"Feature","geometry":{"type":"Point","coordinates":[-6.874453539182303,33.9702279]},"properties":{"ID":"w288179227","NOM":"المركز الوطني للبحث العلمي والتقني","NATURE":"Enseignement supérieur","SOURCE":"OpenStreetMap","DATE_MAJ":"2021-12-30"}},
    {"type":"Feature","geometry":{"type":"Point","coordinates":[-2.242306016056707,35.08650825]},"properties":{"ID":"w288712225","NOM":"Institut de Technologie Hôtelière et Touristique de Saidia","NATURE":"Enseignement supérieur","SOURCE":"OpenStreetMap","DATE_MAJ":"2018-06-07"}},
    {"type":"Feature","geometry":{"type":"Point","coordinates":[-6.8079969502422255,34.05479735]},"properties":{"ID":"w292162804","NOM":"École d'Enseignement Supérieur de Technologie","NATURE":"Enseignement supérieur","SOURCE":"OpenStreetMap","DATE_MAJ":"2020-04-29"}},
    {"type":"Feature","geometry":{"type":"Point","coordinates":[-7.616726557813127,33.03307165]},"properties":{"ID":"w292378419","NOM":"ENCG de Settat","NATURE":"Enseignement supérieur","SOURCE":"OpenStreetMap","DATE_MAJ":"2016-12-05"}},
    {"type":"Feature","geometry":{"type":"Point","coordinates":[-7.61530313137979,33.02537605]},"properties":{"ID":"w292378428","NOM":"FSJES de Settat","NATURE":"Enseignement supérieur","SOURCE":"OpenStreetMap","DATE_MAJ":"2016-11-04"}},
    {"type":"Feature","geometry":{"type":"Point","coordinates":[-4.9884971569757806,33.98968055]},"properties":{"ID":"w292591097","NOM":"Faculté des Lettres et des Sciences humaines - Saïs - Fès","NATURE":"Enseignement supérieur","SOURCE":"OpenStreetMap","DATE_MAJ":"2020-11-18"}},
    {"type":"Feature","geometry":null,"properties":{"ID":"w292597797","NOM":"Ecole Normale Supérieure (ENS) - Meknès","NATURE":"Enseignement supérieur","SOURCE":"OpenStreetMap","DATE_MAJ":"2018-10-18"}},
    {"type":"Feature","geometry":{"type":"Point","coordinates":[-5.585410553159522,33.88424205]},"properties":{"ID":"w292598821","NOM":"Faculté des Sciences Juridiques, Economiques et Sociales","NATURE":"Enseignement supérieur","SOURCE":"OpenStreetMap","DATE_MAJ":"2018-10-18"}},
    {"type":"Feature","geometry":{"type":"Point","coordinates":[-5.89217908351223,35.734857149999996]},"properties":{"ID":"w292666270","NOM":"Atelier génie électrique et mécanique","NATURE":"Enseignement supérieur","SOURCE":"OpenStreetMap","DATE_MAJ":"2022-05-22"}},
    {"type":"Feature","geometry":{"type":"Point","coordinates":[-5.895595861314478,35.7365224]},"properties":{"ID":"w292666306","NOM":"FabLabTanger","NATURE":"Enseignement supérieur","SOURCE":"OpenStreetMap","DATE_MAJ":"2022-05-22"}},
    {"type":"Feature","geometry":{"type":"Point","coordinates":[-1.8986214170117628,34.6517057]},"properties":{"ID":"w293020624","NOM":"Université Mohammed Premier","NATURE":"Enseignement supérieur","SOURCE":"OpenStreetMap","DATE_MAJ":"2015-06-24"}},
    {"type":"Feature","geometry":{"type":"Point","coordinates":[-1.8798083315644059,34.6945298]},"properties":{"ID":"w294491988","NOM":"Institut Spécialisé de Technologie Appliquée (ISTA) El Aounia","NATURE":"Enseignement supérieur","SOURCE":"OpenStreetMap","DATE_MAJ":"2020-11-02"}},
    {"type":"Feature","geometry":{"type":"Point","coordinates":[-8.020411125359747,31.6437511]},"properties":{"ID":"w299506190","NOM":"Faculté des Sciences et Techniques (FSTG)","NATURE":"Enseignement supérieur","SOURCE":"OpenStreetMap","DATE_MAJ":"2019-12-24"}},
    {"type":"Feature","geometry":{"type":"Point","coordinates":[-8.01561663334983,31.64921175]},"properties":{"ID":"w299506577","NOM":"Faculté des Sciences Semlalia","NATURE":"Enseignement supérieur","SOURCE":"OpenStreetMap","DATE_MAJ":"2015-10-07"}},
    {"type":"Feature","geometry":{"type":"Point","coordinates":[-2.9434074303408178,35.296259]},"properties":{"ID":"w301788299","NOM":"Conservatorio de Música de Melilla","NATURE":"Enseignement supérieur","SOURCE":"OpenStreetMap","DATE_MAJ":"2018-04-05"}},
    {"type":"Feature","geometry":{"type":"Point","coordinates":[-2.9471975913565664,35.27927195]},"properties":{"ID":"w304507624","NOM":"I.E.S. \"Juan Antonio Fernández Pérez\"","NATURE":"Enseignement supérieur","SOURCE":"OpenStreetMap","DATE_MAJ":"2018-04-15"}},
    {"type":"Feature","geometry":{"type":"Point","coordinates":[-2.949280587490612,35.28669515]},"properties":{"ID":"w304528548","NOM":"Escuela de Arte “Miguel Marmolejo”","NATURE":"Enseignement supérieur","SOURCE":"OpenStreetMap","DATE_MAJ":"2020-11-19"}},
    {"type":"Feature","geometry":{"type":"Point","coordinates":[-2.9523591868072785,35.289937949999995]},"properties":{"ID":"w304536456","NOM":"Universidad de Granada Campus de Melilla","NATURE":"Enseignement supérieur","SOURCE":"OpenStreetMap","DATE_MAJ":"2021-12-15"}},
    {"type":"Feature","geometry":null,"properties":{"ID":"w315875392","NOM":"Institut de technologie hôtelière","NATURE":"Enseignement supérieur","SOURCE":"OpenStreetMap","DATE_MAJ":"2018-10-18"}},
    {"type":"Feature","geometry":null,"properties":{"ID":"w317572788","NOM":"Ecole nationale des sciences appliquées (ENSA)","NATURE":"Enseignement supérieur","SOURCE":"OpenStreetMap","DATE_MAJ":"2015-04-21"}},
    {"type":"Feature","geometry":{"type":"Point","coordinates":[-9.200664882142862,32.2822091]},"properties":{"ID":"w324749591","NOM":"Ecole d'ingenieur","NATURE":"Enseignement supérieur","SOURCE":"OpenStreetMap","DATE_MAJ":"2015-07-21"}},
    {"type":"Feature","geometry":{"type":"Point","coordinates":[-1.8954377206594257,34.64849145]},"properties":{"ID":"w326554023","NOM":"ISTA Sidi Maafa","NATURE":"Enseignement supérieur","SOURCE":"OpenStreetMap","DATE_MAJ":"2015-02-05"}},
    {"type":"Feature","geometry":{"type":"Point","coordinates":[-1.9035930051320986,34.652024499999996]},"properties":{"ID":"w326554025","NOM":"Faculté Des Sciences Juridiques, Economiques et Sociales","NATURE":"Enseignement supérieur","SOURCE":"OpenStreetMap","DATE_MAJ":"2015-02-05"}},
    {"type":"Feature","geometry":null,"properties":{"ID":"w379401947","NOM":"Faculté de Lettres et de Sciences Humaines d'Ain Chock","NATURE":"Enseignement supérieur","SOURCE":"OpenStreetMap","DATE_MAJ":"2018-10-19"}},
    {"type":"Feature","geometry":null,"properties":{"ID":"w381114501","NOM":"Faculté des Sciences","NATURE":"Enseignement supérieur","SOURCE":"OpenStreetMap","DATE_MAJ":"2022-07-27"}},
    {"type":"Feature","geometry":null,"properties":{"ID":"w387621328","NOM":"ENSA Agadir","NATURE":"Enseignement supérieur","SOURCE":"OpenStreetMap","DATE_MAJ":"2019-08-13"}},
    {"type":"Feature","geometry":{"type":"Point","coordinates":[-9.533259613394307,30.407230650000002]},"properties":{"ID":"w387621329","NOM":"Faculté de médecine / CHU d'agadir","NATURE":"Enseignement supérieur","SOURCE":"OpenStreetMap","DATE_MAJ":"2019-08-13"}},
    {"type":"Feature","geometry":null,"properties":{"ID":"w399343352","NOM":"Colege Al Ghazali","NATURE":"Enseignement supérieur","SOURCE":"OpenStreetMap","DATE_MAJ":"2016-02-23"}},
    {"type":"Feature","geometry":null,"properties":{"ID":"w406698001","NOM":"Faculté des Lettres et des Sciences Humaines","NATURE":"Enseignement supérieur","SOURCE":"OpenStreetMap","DATE_MAJ":"2022-07-27"}},
    {"type":"Feature","geometry":null,"properties":{"ID":"w454716405","NOM":"Ecole Mohammadia d'Ingénieurs","NATURE":"Enseignement supérieur","SOURCE":"OpenStreetMap","DATE_MAJ":"2021-09-21"}},
    {"type":"Feature","geometry":null,"properties":{"ID":"w466924390","NOM":"American Academy","NATURE":"Enseignement supérieur","SOURCE":"OpenStreetMap","DATE_MAJ":"2019-01-07"}},
    {"type":"Feature","geometry":{"type":"Point","coordinates":[-3.9894058463330024,34.230809199999996]},"properties":{"ID":"w477599893","NOM":"centre pedagogique","NATURE":"Enseignement supérieur","SOURCE":"OpenStreetMap","DATE_MAJ":"2017-02-28"}},
    {"type":"Feature","geometry":null,"properties":{"ID":"w478104419","NOM":"Institut Royal de Police","NATURE":"Enseignement supérieur","SOURCE":"OpenStreetMap","DATE_MAJ":"2017-03-02"}},
    {"type":"Feature","geometry":null,"properties":{"ID":"w478104517","NOM":"institute royale de l'administration territoriale","NATURE":"Enseignement supérieur","SOURCE":"OpenStreetMap","DATE_MAJ":"2017-03-09"}},
    {"type":"Feature","geometry":{"type":"Point","coordinates":[-5.823983621030752,35.77529545]},"properties":{"ID":"w48610300","NOM":"Campus de Tanger de l'Université de la Nouvelle-Angleterre","NATURE":"Enseignement supérieur","SOURCE":"OpenStreetMap","DATE_MAJ":"2023-02-25"}},
    {"type":"Feature","geometry":null,"properties":{"ID":"w520874237","NOM":"ISTA El Hank","NATURE":"Enseignement supérieur","SOURCE":"OpenStreetMap","DATE_MAJ":"2017-09-02"}},
    {"type":"Feature","geometry":null,"properties":{"ID":"w580752462","NOM":"Centre de Qualification Professionelle Tahannaout","NATURE":"Enseignement supérieur","SOURCE":"OpenStreetMap","DATE_MAJ":"2019-04-19"}},
    {"type":"Feature","geometry":{"type":"Point","coordinates":[-7.667742402830189,33.55138005]},"properties":{"ID":"w595183942","NOM":"Université Mohammed VI Des Sciences de la Santé","NATURE":"Enseignement supérieur","SOURCE":"OpenStreetMap","DATE_MAJ":"2019-02-03"}},
    {"type":"Feature","geometry":{"type":"Point","coordinates":[-4.96386682258672,34.00638355]},"properties":{"ID":"w72852389","NOM":"Faculté de Medecine et de Pharmacie de Fès","NATURE":"Enseignement supérieur","SOURCE":"OpenStreetMap","DATE_MAJ":"2020-11-18"}},
    {"type":"Feature","geometry":{"type":"Point","coordinates":[-5.107230324284666,33.5395278]},"properties":{"ID":"w798030636","NOM":"Al Akhawayn University","NATURE":"Enseignement supérieur","SOURCE":"OpenStreetMap","DATE_MAJ":"2021-12-02"}},
    {"type":"Feature","geometry":null,"properties":{"ID":"w798035086","NOM":"University Abdelmalek Essaadi","NATURE":"Enseignement supérieur","SOURCE":"OpenStreetMap","DATE_MAJ":"2022-07-29"}},
    {"type":"Feature","geometry":{"type":"Point","coordinates":[-6.842310732942689,33.9986029]},"properties":{"ID":"w798046153","NOM":"Université mohamed V","NATURE":"Enseignement supérieur","SOURCE":"OpenStreetMap","DATE_MAJ":"2021-09-30"}},
    {"type":"Feature","geometry":{"type":"Point","coordinates":[-6.840045056974665,34.00539125]},"properties":{"ID":"w798047046","NOM":"Université Mohamed 5 Rabat","NATURE":"Enseignement supérieur","SOURCE":"OpenStreetMap","DATE_MAJ":"2021-09-30"}},
    {"type":"Feature","geometry":null,"properties":{"ID":"w798129279","NOM":"Institut des Techniciens Spécialisés en Génie Rural et Topographie de Meknès","NATURE":"Enseignement supérieur","SOURCE":"OpenStreetMap","DATE_MAJ":"2020-04-29"}},
    {"type":"Feature","geometry":null,"properties":{"ID":"w798322321","NOM":"Faculté des sciences (UMI);Faculté des Lettres et des sciences humaines","NATURE":"Enseignement supérieur","SOURCE":"OpenStreetMap","DATE_MAJ":"2021-07-26"}},
    {"type":"Feature","geometry":{"type":"Point","coordinates":[-6.837560389872697,34.00777895]},"properties":{"ID":"w798354772","NOM":"Université Mohamed 5 Rabat","NATURE":"Enseignement supérieur","SOURCE":"OpenStreetMap","DATE_MAJ":"2021-09-30"}},
    {"type":"Feature","geometry":null,"properties":{"ID":"w808448053","NOM":"École des sciences de l'information (ESI)","NATURE":"Enseignement supérieur","SOURCE":"OpenStreetMap","DATE_MAJ":"2022-01-07"}},
    {"type":"Feature","geometry":{"type":"Point","coordinates":[-6.85531296467998,34.0048927]},"properties":{"ID":"w88482382","NOM":"Iav - Apesa","NATURE":"Enseignement supérieur","SOURCE":"OpenStreetMap","DATE_MAJ":"2016-11-11"}},
    {"type":"Feature","geometry":{"type":"Point","coordinates":[-4.980599375887228,34.0332832]},"properties":{"ID":"w95233220","NOM":"Université Sidi Mohammed Ben Abdellah","NATURE":"Enseignement supérieur","SOURCE":"OpenStreetMap","DATE_MAJ":"2021-02-13"}},
    {"type":"Feature","geometry":{"type":"Point","coordinates":[-6.8209686000000005,33.9239636]},"properties":{"ID":"n10147097437","NOM":"أكاديمية المملكة المغربية","NATURE":"Science","SOURCE":"OpenStreetMap","DATE_MAJ":"2022-11-01"}},
    {"type":"Feature","geometry":{"type":"Point","coordinates":[-6.8474947,33.991002300000005]},"properties":{"ID":"n4001039675","NOM":"Institut De Recherche Pour Le Développement","NATURE":"Science","SOURCE":"OpenStreetMap","DATE_MAJ":"2016-04-01"}},
    {"type":"Feature","geometry":{"type":"Point","coordinates":[-4.9971879,34.046145100000004]},"properties":{"ID":"n4017847166","NOM":"FabLab la main à la pate","NATURE":"Science","SOURCE":"OpenStreetMap","DATE_MAJ":"2018-11-11"}},
    {
        "type": "Feature",
        "geometry": {
            "type": "Point",
            "coordinates": [
                -6.8459844,
                33.9910215
            ]
        },
        "properties": {
            "osm_id": "296112675",
            "code": 2082,
            "fclass": "school",
            "NOM": "Lycée Descartes"
        }
    },
    {
        "type": "Feature",
        "geometry": {
            "type": "Point",
            "coordinates": [
                -6.845183,
                33.9925852
            ]
        },
        "properties": {
            "osm_id": "313473516",
            "code": 2082,
            "fclass": "school",
            "NOM": "Paul Césanne"
        }
    },
    {
        "type": "Feature",
        "geometry": {
            "type": "Point",
            "coordinates": [
                -6.8270085,
                33.9898066
            ]
        },
        "properties": {
            "osm_id": "512692135",
            "code": 2082,
            "fclass": "school",
            "NOM": "Collège Saint Exupery"
        }
    },
    {
        "type": "Feature",
        "geometry": {
            "type": "Point",
            "coordinates": [
                -4.0114429,
                34.1457732
            ]
        },
        "properties": {
            "osm_id": "548875155",
            "code": 2082,
            "fclass": "school",
            "NOM": ""
        }
    },
    {
        "type": "Feature",
        "geometry": {
            "type": "Point",
            "coordinates": [
                -5.001701,
                34.0345861
            ]
        },
        "properties": {
            "osm_id": "560601132",
            "code": 2082,
            "fclass": "school",
            "NOM": "GSU Jean de La Fontaine"
        }
    },
    {
        "type": "Feature",
        "geometry": {
            "type": "Point",
            "coordinates": [
                -5.8189968,
                35.7829139
            ]
        },
        "properties": {
            "osm_id": "616475040",
            "code": 2082,
            "fclass": "school",
            "NOM": "Al Amana"
        }
    },
    {
        "type": "Feature",
        "geometry": {
            "type": "Point",
            "coordinates": [
                -5.8195497,
                35.7840374
            ]
        },
        "properties": {
            "osm_id": "616475063",
            "code": 2082,
            "fclass": "school",
            "NOM": "Collège Maa al aâïnaïn"
        }
    },
    {
        "type": "Feature",
        "geometry": {
            "type": "Point",
            "coordinates": [
                -5.8118743,
                35.7755514
            ]
        },
        "properties": {
            "osm_id": "616896645",
            "code": 2082,
            "fclass": "school",
            "NOM": "Ecole Adrien Berchet"
        }
    },
    {
        "type": "Feature",
        "geometry": {
            "type": "Point",
            "coordinates": [
                -5.8243613,
                35.7730733
            ]
        },
        "properties": {
            "osm_id": "617868693",
            "code": 2082,
            "fclass": "school",
            "NOM": "Centre Pedagogique Régional de Tanger"
        }
    },
    {
        "type": "Feature",
        "geometry": {
            "type": "Point",
            "coordinates": [
                -6.5305567,
                32.1454342
            ]
        },
        "properties": {
            "osm_id": "622644084",
            "code": 2082,
            "fclass": "school",
            "NOM": ""
        }
    },
    {
        "type": "Feature",
        "geometry": {
            "type": "Point",
            "coordinates": [
                -7.5498942,
                33.6129183
            ]
        },
        "properties": {
            "osm_id": "626129998",
            "code": 2082,
            "fclass": "school",
            "NOM": "Ibno Abdou Rabih"
        }
    },
    {
        "type": "Feature",
        "geometry": {
            "type": "Point",
            "coordinates": [
                -5.8938557,
                35.736172
            ]
        },
        "properties": {
            "osm_id": "763205547",
            "code": 2082,
            "fclass": "school",
            "NOM": "FSTT"
        }
    },
    {
        "type": "Feature",
        "geometry": {
            "type": "Point",
            "coordinates": [
                -6.8475003,
                34.0190833
            ]
        },
        "properties": {
            "osm_id": "766697668",
            "code": 2082,
            "fclass": "school",
            "NOM": "Collège Ibn Khaldoun ثانوية ابن خلدون الإعدادية"
        }
    },
    {
        "type": "Feature",
        "geometry": {
            "type": "Point",
            "coordinates": [
                -5.3232588,
                35.887333
            ]
        },
        "properties": {
            "osm_id": "866516429",
            "code": 2082,
            "fclass": "school",
            "NOM": "Centro Escolar"
        }
    },
    {
        "type": "Feature",
        "geometry": {
            "type": "Point",
            "coordinates": [
                -7.6375435,
                33.5633241
            ]
        },
        "properties": {
            "osm_id": "997888783",
            "code": 2082,
            "fclass": "school",
            "NOM": "El Jabr"
        }
    },
    {
        "type": "Feature",
        "geometry": {
            "type": "Point",
            "coordinates": [
                -6.9213951,
                33.9297633
            ]
        },
        "properties": {
            "osm_id": "1026364789",
            "code": 2082,
            "fclass": "school",
            "NOM": "Madariss Maria"
        }
    },
    {
        "type": "Feature",
        "geometry": {
            "type": "Point",
            "coordinates": [
                -7.5321537,
                33.611407
            ]
        },
        "properties": {
            "osm_id": "1184211982",
            "code": 2082,
            "fclass": "school",
            "NOM": "chefchaouni الشفشاوني"
        }
    },
    {
        "type": "Feature",
        "geometry": {
            "type": "Point",
            "coordinates": [
                -7.5327438,
                33.6110764
            ]
        },
        "properties": {
            "osm_id": "1184211992",
            "code": 2082,
            "fclass": "school",
            "NOM": "idriss 2 إدريس الثاني"
        }
    },
    {
        "type": "Feature",
        "geometry": {
            "type": "Point",
            "coordinates": [
                -7.5348037,
                33.6131761
            ]
        },
        "properties": {
            "osm_id": "1184212200",
            "code": 2082,
            "fclass": "school",
            "NOM": "ثانوية ابن العوام"
        }
    },
    {
        "type": "Feature",
        "geometry": {
            "type": "Point",
            "coordinates": [
                -9.7591805,
                31.506969
            ]
        },
        "properties": {
            "osm_id": "1185768232",
            "code": 2082,
            "fclass": "school",
            "NOM": "Gestion Touristique et Hôtelière"
        }
    },
    {
        "type": "Feature",
        "geometry": {
            "type": "Point",
            "coordinates": [
                -9.7598752,
                31.5090225
            ]
        },
        "properties": {
            "osm_id": "1185779478",
            "code": 2082,
            "fclass": "school",
            "NOM": "École Primaire Tilal"
        }
    },
    {
        "type": "Feature",
        "geometry": {
            "type": "Point",
            "coordinates": [
                -9.7608395,
                31.5106493
            ]
        },
        "properties": {
            "osm_id": "1187021170",
            "code": 2082,
            "fclass": "school",
            "NOM": "Collège Mohammed VI"
        }
    },
    {
        "type": "Feature",
        "geometry": {
            "type": "Point",
            "coordinates": [
                -9.7604412,
                31.5074035
            ]
        },
        "properties": {
            "osm_id": "1187021184",
            "code": 2082,
            "fclass": "school",
            "NOM": "École Supérieure de Technologie(Informatique)"
        }
    },
    {
        "type": "Feature",
        "geometry": {
            "type": "Point",
            "coordinates": [
                -9.766179,
                31.5119087
            ]
        },
        "properties": {
            "osm_id": "1205575866",
            "code": 2082,
            "fclass": "school",
            "NOM": "Ecole Artinasat"
        }
    },
    {
        "type": "Feature",
        "geometry": {
            "type": "Point",
            "coordinates": [
                -9.7605565,
                31.5115541
            ]
        },
        "properties": {
            "osm_id": "1205585665",
            "code": 2082,
            "fclass": "school",
            "NOM": "Orphelinat / Oeuvre sociale de l'Enfance"
        }
    },
    {
        "type": "Feature",
        "geometry": {
            "type": "Point",
            "coordinates": [
                -9.7539501,
                31.5201811
            ]
        },
        "properties": {
            "osm_id": "1207095609",
            "code": 2082,
            "fclass": "school",
            "NOM": "École 1er Bouhaira"
        }
    },
    {
        "type": "Feature",
        "geometry": {
            "type": "Point",
            "coordinates": [
                -9.7546084,
                31.5188542
            ]
        },
        "properties": {
            "osm_id": "1207123203",
            "code": 2082,
            "fclass": "school",
            "NOM": "Collège Abdani"
        }
    },
    {
        "type": "Feature",
        "geometry": {
            "type": "Point",
            "coordinates": [
                -9.7534578,
                31.5213083
            ]
        },
        "properties": {
            "osm_id": "1207123373",
            "code": 2082,
            "fclass": "school",
            "NOM": "École 1er Skala"
        }
    },
    {
        "type": "Feature",
        "geometry": {
            "type": "Point",
            "coordinates": [
                -9.7572037,
                31.5045085
            ]
        },
        "properties": {
            "osm_id": "1210233063",
            "code": 2082,
            "fclass": "school",
            "NOM": "Ecole de Marine"
        }
    },
    {
        "type": "Feature",
        "geometry": {
            "type": "Point",
            "coordinates": [
                -6.178855,
                29.8476969
            ]
        },
        "properties": {
            "osm_id": "1226388014",
            "code": 2082,
            "fclass": "school",
            "NOM": "Nomad school"
        }
    },
    {
        "type": "Feature",
        "geometry": {
            "type": "Point",
            "coordinates": [
                -6.8203653,
                33.9785109
            ]
        },
        "properties": {
            "osm_id": "1234619345",
            "code": 2082,
            "fclass": "school",
            "NOM": "College Talha Ibnou Obaid Lah"
        }
    },
    {
        "type": "Feature",
        "geometry": {
            "type": "Point",
            "coordinates": [
                -6.8548682,
                33.9912633
            ]
        },
        "properties": {
            "osm_id": "1238504311",
            "code": 2082,
            "fclass": "school",
            "NOM": "Rabat American School (RAS)"
        }
    },
    {
        "type": "Feature",
        "geometry": {
            "type": "Point",
            "coordinates": [
                -4.6425866,
                33.898822
            ]
        },
        "properties": {
            "osm_id": "1261949387",
            "code": 2082,
            "fclass": "school",
            "NOM": "École Primaire Zaouiat Sidi Ben Aïssa"
        }
    },
    {
        "type": "Feature",
        "geometry": {
            "type": "Point",
            "coordinates": [
                -7.6086159,
                33.5816989
            ]
        },
        "properties": {
            "osm_id": "1284530339",
            "code": 2082,
            "fclass": "school",
            "NOM": "Ecole Madania"
        }
    },
    {
        "type": "Feature",
        "geometry": {
            "type": "Point",
            "coordinates": [
                -7.6079507,
                33.5814397
            ]
        },
        "properties": {
            "osm_id": "1284530342",
            "code": 2082,
            "fclass": "school",
            "NOM": "Ecole La Residence"
        }
    },
    {
        "type": "Feature",
        "geometry": {
            "type": "Point",
            "coordinates": [
                -7.6888665,
                33.5584237
            ]
        },
        "properties": {
            "osm_id": "1307904330",
            "code": 2082,
            "fclass": "school",
            "NOM": "melouia"
        }
    },
    {
        "type": "Feature",
        "geometry": {
            "type": "Point",
            "coordinates": [
                -7.6898538,
                33.559311
            ]
        },
        "properties": {
            "osm_id": "1307904336",
            "code": 2082,
            "fclass": "school",
            "NOM": "ouad el makhazin"
        }
    },
    {
        "type": "Feature",
        "geometry": {
            "type": "Point",
            "coordinates": [
                -9.2364136,
                32.3053643
            ]
        },
        "properties": {
            "osm_id": "1365534833",
            "code": 2082,
            "fclass": "school",
            "NOM": "مدرسة علان الخاصة"
        }
    },
    {
        "type": "Feature",
        "geometry": {
            "type": "Point",
            "coordinates": [
                -6.5857157,
                31.4598269
            ]
        },
        "properties": {
            "osm_id": "1490672393",
            "code": 2082,
            "fclass": "school",
            "NOM": ""
        }
    },
    {
        "type": "Feature",
        "geometry": {
            "type": "Point",
            "coordinates": [
                -6.6163005,
                31.4643543
            ]
        },
        "properties": {
            "osm_id": "1490672607",
            "code": 2082,
            "fclass": "school",
            "NOM": "Ecole"
        }
    },
    {
        "type": "Feature",
        "geometry": {
            "type": "Point",
            "coordinates": [
                -5.3803532,
                35.5690794
            ]
        },
        "properties": {
            "osm_id": "1512451590",
            "code": 2082,
            "fclass": "school",
            "NOM": "IEES Nuestra Señora del Pilar"
        }
    },
    {
        "type": "Feature",
        "geometry": {
            "type": "Point",
            "coordinates": [
                -5.3705863,
                35.572385
            ]
        },
        "properties": {
            "osm_id": "1512451604",
            "code": 2082,
            "fclass": "school",
            "NOM": "CEEP Jacinto Benavente"
        }
    },
    {
        "type": "Feature",
        "geometry": {
            "type": "Point",
            "coordinates": [
                -5.0022753,
                33.9897246
            ]
        },
        "properties": {
            "osm_id": "1587007277",
            "code": 2082,
            "fclass": "school",
            "NOM": "Ecole Nationale des Sciences Appliquées"
        }
    },
    {
        "type": "Feature",
        "geometry": {
            "type": "Point",
            "coordinates": [
                -5.00226,
                33.989136
            ]
        },
        "properties": {
            "osm_id": "1587007280",
            "code": 2082,
            "fclass": "school",
            "NOM": "Ecole Supérieure de tehnologie"
        }
    },
    {
        "type": "Feature",
        "geometry": {
            "type": "Point",
            "coordinates": [
                -5.2211811,
                33.4333135
            ]
        },
        "properties": {
            "osm_id": "1654431657",
            "code": 2082,
            "fclass": "school",
            "NOM": "Ecole du Prince de l'Atlas Moulay Al Hassan"
        }
    },
    {
        "type": "Feature",
        "geometry": {
            "type": "Point",
            "coordinates": [
                -6.8608679,
                33.9636976
            ]
        },
        "properties": {
            "osm_id": "1655023707",
            "code": 2082,
            "fclass": "school",
            "NOM": ""
        }
    },
    {
        "type": "Feature",
        "geometry": {
            "type": "Point",
            "coordinates": [
                -4.8516039,
                31.2358062
            ]
        },
        "properties": {
            "osm_id": "1705715123",
            "code": 2082,
            "fclass": "school",
            "NOM": "École Azag"
        }
    },
    {
        "type": "Feature",
        "geometry": {
            "type": "Point",
            "coordinates": [
                -6.8446567,
                33.9747083
            ]
        },
        "properties": {
            "osm_id": "1722007552",
            "code": 2082,
            "fclass": "school",
            "NOM": "Les Anges"
        }
    },
    {
        "type": "Feature",
        "geometry": {
            "type": "Point",
            "coordinates": [
                -6.8382604,
                34.008242
            ]
        },
        "properties": {
            "osm_id": "1761182097",
            "code": 2082,
            "fclass": "school",
            "NOM": "Le Laboratoire Conception et Systèmes (LCS)"
        }
    },
    {
        "type": "Feature",
        "geometry": {
            "type": "Point",
            "coordinates": [
                -4.6279116,
                34.6723133
            ]
        },
        "properties": {
            "osm_id": "1785632410",
            "code": 2082,
            "fclass": "school",
            "NOM": "lycée collégial Khlalfa"
        }
    },
    {
        "type": "Feature",
        "geometry": {
            "type": "Point",
            "coordinates": [
                -4.6387082,
                34.5404773
            ]
        },
        "properties": {
            "osm_id": "1788444980",
            "code": 2082,
            "fclass": "school",
            "NOM": "Lycée Collégial Al Wahda"
        }
    },
    {
        "type": "Feature",
        "geometry": {
            "type": "Point",
            "coordinates": [
                -4.6382193,
                34.5459016
            ]
        },
        "properties": {
            "osm_id": "1797874814",
            "code": 2082,
            "fclass": "school",
            "NOM": "Ecole Hay Elamal"
        }
    },
    {
        "type": "Feature",
        "geometry": {
            "type": "Point",
            "coordinates": [
                -6.8535727,
                33.8537736
            ]
        },
        "properties": {
            "osm_id": "1824581017",
            "code": 2082,
            "fclass": "school",
            "NOM": ""
        }
    },
    {
        "type": "Feature",
        "geometry": {
            "type": "Point",
            "coordinates": [
                -6.8517166,
                33.8584156
            ]
        },
        "properties": {
            "osm_id": "1824581023",
            "code": 2082,
            "fclass": "school",
            "NOM": ""
        }
    },
    {
        "type": "Feature",
        "geometry": {
            "type": "Point",
            "coordinates": [
                -6.8524784,
                33.8532034
            ]
        },
        "properties": {
            "osm_id": "1824581026",
            "code": 2082,
            "fclass": "school",
            "NOM": ""
        }
    },
    {
        "type": "Feature",
        "geometry": {
            "type": "Point",
            "coordinates": [
                -7.9914947,
                31.6349952
            ]
        },
        "properties": {
            "osm_id": "1839982084",
            "code": 2082,
            "fclass": "school",
            "NOM": ""
        }
    },
    {
        "type": "Feature",
        "geometry": {
            "type": "Point",
            "coordinates": [
                -4.9954136,
                34.0377331
            ]
        },
        "properties": {
            "osm_id": "1866497931",
            "code": 2082,
            "fclass": "school",
            "NOM": "Ecole primaire Slaoui"
        }
    },
    {
        "type": "Feature",
        "geometry": {
            "type": "Point",
            "coordinates": [
                -4.6627269,
                34.2880309
            ]
        },
        "properties": {
            "osm_id": "1867078434",
            "code": 2082,
            "fclass": "school",
            "NOM": "Ecole Idriss 1"
        }
    },
    {
        "type": "Feature",
        "geometry": {
            "type": "Point",
            "coordinates": [
                -4.6617726,
                34.28693
            ]
        },
        "properties": {
            "osm_id": "1867078436",
            "code": 2082,
            "fclass": "school",
            "NOM": "Lycee 11 Ganvier"
        }
    },
    {
        "type": "Feature",
        "geometry": {
            "type": "Point",
            "coordinates": [
                -3.5411602,
                35.0079024
            ]
        },
        "properties": {
            "osm_id": "1887658974",
            "code": 2082,
            "fclass": "school",
            "NOM": ""
        }
    },
    {
        "type": "Feature",
        "geometry": {
            "type": "Point",
            "coordinates": [
                -7.7252133,
                33.5528661
            ]
        },
        "properties": {
            "osm_id": "1926947271",
            "code": 2082,
            "fclass": "school",
            "NOM": "George Washington Academy"
        }
    },
    {
        "type": "Feature",
        "geometry": {
            "type": "Point",
            "coordinates": [
                -8.4973994,
                33.228808
            ]
        },
        "properties": {
            "osm_id": "2014933007",
            "code": 2082,
            "fclass": "school",
            "NOM": "Ecole Ihsane 3"
        }
    },
    {
        "type": "Feature",
        "geometry": {
            "type": "Point",
            "coordinates": [
                -8.4981236,
                33.2336361
            ]
        },
        "properties": {
            "osm_id": "2014933008",
            "code": 2082,
            "fclass": "school",
            "NOM": "Ecole Ihsane 2"
        }
    },
    {
        "type": "Feature",
        "geometry": {
            "type": "Point",
            "coordinates": [
                -7.1329622,
                31.0445773
            ]
        },
        "properties": {
            "osm_id": "2024387627",
            "code": 2082,
            "fclass": "school",
            "NOM": "Ecole"
        }
    },
    {
        "type": "Feature",
        "geometry": {
            "type": "Point",
            "coordinates": [
                -7.6402248,
                33.5709147
            ]
        },
        "properties": {
            "osm_id": "2038419012",
            "code": 2082,
            "fclass": "school",
            "NOM": "Lycée Al Waha"
        }
    },
    {
        "type": "Feature",
        "geometry": {
            "type": "Point",
            "coordinates": [
                -7.994735,
                31.6463648
            ]
        },
        "properties": {
            "osm_id": "2068685183",
            "code": 2082,
            "fclass": "school",
            "NOM": "HEEC"
        }
    },
    {
        "type": "Feature",
        "geometry": {
            "type": "Point",
            "coordinates": [
                -4.9933906,
                34.0629124
            ]
        },
        "properties": {
            "osm_id": "2133975458",
            "code": 2082,
            "fclass": "school",
            "NOM": "مدرسة ابن خلدون"
        }
    },
    {
        "type": "Feature",
        "geometry": {
            "type": "Point",
            "coordinates": [
                -9.6417077,
                29.9776878
            ]
        },
        "properties": {
            "osm_id": "2190218947",
            "code": 2082,
            "fclass": "school",
            "NOM": "ecole sidi wassay"
        }
    },
    {
        "type": "Feature",
        "geometry": {
            "type": "Point",
            "coordinates": [
                -5.3841297,
                35.5701336
            ]
        },
        "properties": {
            "osm_id": "2193193602",
            "code": 2082,
            "fclass": "school",
            "NOM": "Lycée Jaber Ibn Hayyan"
        }
    },
    {
        "type": "Feature",
        "geometry": {
            "type": "Point",
            "coordinates": [
                -5.3809809,
                35.5725279
            ]
        },
        "properties": {
            "osm_id": "2193205110",
            "code": 2082,
            "fclass": "school",
            "NOM": "Lycée Cadi Ayad"
        }
    },
    {
        "type": "Feature",
        "geometry": {
            "type": "Point",
            "coordinates": [
                -5.3867958,
                35.5675548
            ]
        },
        "properties": {
            "osm_id": "2193205112",
            "code": 2082,
            "fclass": "school",
            "NOM": ""
        }
    },
    {
        "type": "Feature",
        "geometry": {
            "type": "Point",
            "coordinates": [
                -5.3836898,
                35.5705482
            ]
        },
        "properties": {
            "osm_id": "2193205113",
            "code": 2082,
            "fclass": "school",
            "NOM": "Collège Anwal"
        }
    },
    {
        "type": "Feature",
        "geometry": {
            "type": "Point",
            "coordinates": [
                -5.3814151,
                35.5713643
            ]
        },
        "properties": {
            "osm_id": "2193205114",
            "code": 2082,
            "fclass": "school",
            "NOM": "Collège Khadija Oum Al Mouminin"
        }
    },
    {
        "type": "Feature",
        "geometry": {
            "type": "Point",
            "coordinates": [
                -5.3785346,
                35.5709191
            ]
        },
        "properties": {
            "osm_id": "2193206362",
            "code": 2082,
            "fclass": "school",
            "NOM": ""
        }
    },
    {
        "type": "Feature",
        "geometry": {
            "type": "Point",
            "coordinates": [
                -5.3835396,
                35.5711023
            ]
        },
        "properties": {
            "osm_id": "2193213685",
            "code": 2082,
            "fclass": "school",
            "NOM": "Beaux Arts"
        }
    },
    {
        "type": "Feature",
        "geometry": {
            "type": "Point",
            "coordinates": [
                -5.3848164,
                35.5708405
            ]
        },
        "properties": {
            "osm_id": "2193213908",
            "code": 2082,
            "fclass": "school",
            "NOM": ""
        }
    },
    {
        "type": "Feature",
        "geometry": {
            "type": "Point",
            "coordinates": [
                -5.3817402,
                35.5737366
            ]
        },
        "properties": {
            "osm_id": "2203821244",
            "code": 2082,
            "fclass": "school",
            "NOM": "ecole Sidi Talha"
        }
    },
    {
        "type": "Feature",
        "geometry": {
            "type": "Point",
            "coordinates": [
                -5.380369,
                35.5746282
            ]
        },
        "properties": {
            "osm_id": "2203821245",
            "code": 2082,
            "fclass": "school",
            "NOM": ""
        }
    },
    {
        "type": "Feature",
        "geometry": {
            "type": "Point",
            "coordinates": [
                -5.3808143,
                35.5747242
            ]
        },
        "properties": {
            "osm_id": "2203821247",
            "code": 2082,
            "fclass": "school",
            "NOM": ""
        }
    },
    {
        "type": "Feature",
        "geometry": {
            "type": "Point",
            "coordinates": [
                -5.3753873,
                35.5725454
            ]
        },
        "properties": {
            "osm_id": "2204815856",
            "code": 2082,
            "fclass": "school",
            "NOM": "Ecole Ibn Roshd"
        }
    },
    {
        "type": "Feature",
        "geometry": {
            "type": "Point",
            "coordinates": [
                -6.79878,
                34.0469459
            ]
        },
        "properties": {
            "osm_id": "2296160030",
            "code": 2082,
            "fclass": "school",
            "NOM": "Ecole Primaire Al Ayachi"
        }
    },
    {
        "type": "Feature",
        "geometry": {
            "type": "Point",
            "coordinates": [
                -5.0876901,
                31.5848876
            ]
        },
        "properties": {
            "osm_id": "2298822315",
            "code": 2082,
            "fclass": "school",
            "NOM": "Ecole de Taggourt ⵜⵉⵏⵎⵍ ⵏ ⵜⴰⴳⴳⵓⵔⵜ"
        }
    },
    {
        "type": "Feature",
        "geometry": {
            "type": "Point",
            "coordinates": [
                -5.0611577,
                31.593296
            ]
        },
        "properties": {
            "osm_id": "2298823902",
            "code": 2082,
            "fclass": "school",
            "NOM": "Ecole de Tin Aït Mham'd ⵜⵉⵏⵎⵍ ⵏ ⵜⵉⵏ ⴰⵢⵜ ⵎⵃⴰⵎⴷ مدرسة تين"
        }
    },
    {
        "type": "Feature",
        "geometry": {
            "type": "Point",
            "coordinates": [
                -3.8616728,
                35.1721132
            ]
        },
        "properties": {
            "osm_id": "2308103127",
            "code": 2082,
            "fclass": "school",
            "NOM": "national school of applied science"
        }
    },
    {
        "type": "Feature",
        "geometry": {
            "type": "Point",
            "coordinates": [
                -5.8262825,
                35.7571531
            ]
        },
        "properties": {
            "osm_id": "2319322336",
            "code": 2082,
            "fclass": "school",
            "NOM": "Ecole Dakhla مدرسة الدخلة"
        }
    },
    {
        "type": "Feature",
        "geometry": {
            "type": "Point",
            "coordinates": [
                -5.2762159,
                34.9688867
            ]
        },
        "properties": {
            "osm_id": "2320160828",
            "code": 2082,
            "fclass": "school",
            "NOM": "Ecole"
        }
    },
    {
        "type": "Feature",
        "geometry": {
            "type": "Point",
            "coordinates": [
                -9.3507495,
                29.2166543
            ]
        },
        "properties": {
            "osm_id": "2355075759",
            "code": 2082,
            "fclass": "school",
            "NOM": ""
        }
    },
    {
        "type": "Feature",
        "geometry": {
            "type": "Point",
            "coordinates": [
                -3.0004438,
                35.155434
            ]
        },
        "properties": {
            "osm_id": "2357246363",
            "code": 2082,
            "fclass": "school",
            "NOM": "ecole sidi ahmed Abdessalam"
        }
    },
    {
        "type": "Feature",
        "geometry": {
            "type": "Point",
            "coordinates": [
                -7.6506225,
                33.5166241
            ]
        },
        "properties": {
            "osm_id": "2378025797",
            "code": 2082,
            "fclass": "school",
            "NOM": "Othmane Ibn Affane"
        }
    },
    {
        "type": "Feature",
        "geometry": {
            "type": "Point",
            "coordinates": [
                -9.2206215,
                30.3867605
            ]
        },
        "properties": {
            "osm_id": "2390570274",
            "code": 2082,
            "fclass": "school",
            "NOM": "Mohammed Darfoufi"
        }
    },
    {
        "type": "Feature",
        "geometry": {
            "type": "Point",
            "coordinates": [
                -9.2176094,
                30.3872857
            ]
        },
        "properties": {
            "osm_id": "2390570280",
            "code": 2082,
            "fclass": "school",
            "NOM": "Hassan 2"
        }
    },
    {
        "type": "Feature",
        "geometry": {
            "type": "Point",
            "coordinates": [
                -9.22693,
                30.3864551
            ]
        },
        "properties": {
            "osm_id": "2390586567",
            "code": 2082,
            "fclass": "school",
            "NOM": ""
        }
    },
    {
        "type": "Feature",
        "geometry": {
            "type": "Point",
            "coordinates": [
                -9.2114137,
                30.3946424
            ]
        },
        "properties": {
            "osm_id": "2390652676",
            "code": 2082,
            "fclass": "school",
            "NOM": "Ibn Tofil"
        }
    },
    {
        "type": "Feature",
        "geometry": {
            "type": "Point",
            "coordinates": [
                -9.2201709,
                30.3967411
            ]
        },
        "properties": {
            "osm_id": "2390734763",
            "code": 2082,
            "fclass": "school",
            "NOM": ""
        }
    },
    {
        "type": "Feature",
        "geometry": {
            "type": "Point",
            "coordinates": [
                -9.2218824,
                30.3973842
            ]
        },
        "properties": {
            "osm_id": "2390734770",
            "code": 2082,
            "fclass": "school",
            "NOM": ""
        }
    },
    {
        "type": "Feature",
        "geometry": {
            "type": "Point",
            "coordinates": [
                -5.007397,
                34.0345119
            ]
        },
        "properties": {
            "osm_id": "2420388279",
            "code": 2082,
            "fclass": "school",
            "NOM": "Centre d'éducation à l'environnement"
        }
    },
    {
        "type": "Feature",
        "geometry": {
            "type": "Point",
            "coordinates": [
                -5.1730545,
                31.122146
            ]
        },
        "properties": {
            "osm_id": "2422233485",
            "code": 2082,
            "fclass": "school",
            "NOM": "College Bougaffer"
        }
    },
    {
        "type": "Feature",
        "geometry": {
            "type": "Point",
            "coordinates": [
                -7.9776192,
                31.6319264
            ]
        },
        "properties": {
            "osm_id": "2423431118",
            "code": 2082,
            "fclass": "school",
            "NOM": ""
        }
    },
    {
        "type": "Feature",
        "geometry": {
            "type": "Point",
            "coordinates": [
                -7.9790032,
                31.62581
            ]
        },
        "properties": {
            "osm_id": "2423431123",
            "code": 2082,
            "fclass": "school",
            "NOM": ""
        }
    },
    {
        "type": "Feature",
        "geometry": {
            "type": "Point",
            "coordinates": [
                -7.9819,
                31.630204
            ]
        },
        "properties": {
            "osm_id": "2423431126",
            "code": 2082,
            "fclass": "school",
            "NOM": ""
        }
    },
    {
        "type": "Feature",
        "geometry": {
            "type": "Point",
            "coordinates": [
                -7.9834557,
                31.6363152
            ]
        },
        "properties": {
            "osm_id": "2423431742",
            "code": 2082,
            "fclass": "school",
            "NOM": "College Abd El Moumen"
        }
    },
    {
        "type": "Feature",
        "geometry": {
            "type": "Point",
            "coordinates": [
                -6.8482831,
                33.9937943
            ]
        },
        "properties": {
            "osm_id": "2429247942",
            "code": 2082,
            "fclass": "school",
            "NOM": "Averoes"
        }
    },
    {
        "type": "Feature",
        "geometry": {
            "type": "Point",
            "coordinates": [
                -5.5552357,
                33.8987544
            ]
        },
        "properties": {
            "osm_id": "2434590074",
            "code": 2082,
            "fclass": "school",
            "NOM": ""
        }
    },
    {
        "type": "Feature",
        "geometry": {
            "type": "Point",
            "coordinates": [
                -7.3984013,
                33.7067597
            ]
        },
        "properties": {
            "osm_id": "2436650366",
            "code": 2082,
            "fclass": "school",
            "NOM": "Ecole Jacques Hersant"
        }
    },
    {
        "type": "Feature",
        "geometry": {
            "type": "Point",
            "coordinates": [
                -5.0965912,
                32.7271581
            ]
        },
        "properties": {
            "osm_id": "2455514499",
            "code": 2082,
            "fclass": "school",
            "NOM": "Lycée Moussa Ibnou Noussayr"
        }
    },
    {
        "type": "Feature",
        "geometry": {
            "type": "Point",
            "coordinates": [
                -7.3546792,
                33.7086791
            ]
        },
        "properties": {
            "osm_id": "2463973465",
            "code": 2082,
            "fclass": "school",
            "NOM": "Ecole apostrophe"
        }
    },
    {
        "type": "Feature",
        "geometry": {
            "type": "Point",
            "coordinates": [
                -7.3409123,
                33.6895484
            ]
        },
        "properties": {
            "osm_id": "2463981281",
            "code": 2082,
            "fclass": "school",
            "NOM": "Tayba Elite"
        }
    },
    {
        "type": "Feature",
        "geometry": {
            "type": "Point",
            "coordinates": [
                -5.8361224,
                35.7650257
            ]
        },
        "properties": {
            "osm_id": "2521678032",
            "code": 2082,
            "fclass": "school",
            "NOM": ""
        }
    },
    {
        "type": "Feature",
        "geometry": {
            "type": "Point",
            "coordinates": [
                -7.606326,
                33.5594424
            ]
        },
        "properties": {
            "osm_id": "2582305781",
            "code": 2082,
            "fclass": "school",
            "NOM": "Lycée oum el banine"
        }
    },
    {
        "type": "Feature",
        "geometry": {
            "type": "Point",
            "coordinates": [
                -7.6052049,
                33.5598965
            ]
        },
        "properties": {
            "osm_id": "2582305782",
            "code": 2082,
            "fclass": "school",
            "NOM": "Collège"
        }
    },
    {
        "type": "Feature",
        "geometry": {
            "type": "Point",
            "coordinates": [
                -7.6023179,
                33.558815
            ]
        },
        "properties": {
            "osm_id": "2582305784",
            "code": 2082,
            "fclass": "school",
            "NOM": "Lycée El Bakilani"
        }
    },
    {
        "type": "Feature",
        "geometry": {
            "type": "Point",
            "coordinates": [
                -7.6014753,
                33.558923
            ]
        },
        "properties": {
            "osm_id": "2582305785",
            "code": 2082,
            "fclass": "school",
            "NOM": "École primaire Boujdour"
        }
    },
    {
        "type": "Feature",
        "geometry": {
            "type": "Point",
            "coordinates": [
                -8.0143315,
                31.6284599
            ]
        },
        "properties": {
            "osm_id": "2590789708",
            "code": 2082,
            "fclass": "school",
            "NOM": "Lycee Hassan II"
        }
    },
    {
        "type": "Feature",
        "geometry": {
            "type": "Point",
            "coordinates": [
                -9.5911781,
                30.2126785
            ]
        },
        "properties": {
            "osm_id": "2593013368",
            "code": 2082,
            "fclass": "school",
            "NOM": "École Rouiss"
        }
    },
    {
        "type": "Feature",
        "geometry": {
            "type": "Point",
            "coordinates": [
                -7.9915356,
                31.6341802
            ]
        },
        "properties": {
            "osm_id": "2594974529",
            "code": 2082,
            "fclass": "school",
            "NOM": ""
        }
    },
    {
        "type": "Feature",
        "geometry": {
            "type": "Point",
            "coordinates": [
                -9.7098558,
                30.5747307
            ]
        },
        "properties": {
            "osm_id": "2595495902",
            "code": 2082,
            "fclass": "school",
            "NOM": ""
        }
    },
    {
        "type": "Feature",
        "geometry": {
            "type": "Point",
            "coordinates": [
                -6.8016007,
                34.0496432
            ]
        },
        "properties": {
            "osm_id": "2622485570",
            "code": 2082,
            "fclass": "school",
            "NOM": "École Alamat Madani Safar مدرسة العلامة المدني الصفار"
        }
    },
    {
        "type": "Feature",
        "geometry": {
            "type": "Point",
            "coordinates": [
                -7.6423414,
                33.5837031
            ]
        },
        "properties": {
            "osm_id": "2640192760",
            "code": 2082,
            "fclass": "school",
            "NOM": "Ecole marocaine des sciences de l'ingenieur"
        }
    },
    {
        "type": "Feature",
        "geometry": {
            "type": "Point",
            "coordinates": [
                -7.6447516,
                33.5851712
            ]
        },
        "properties": {
            "osm_id": "2640314839",
            "code": 2082,
            "fclass": "school",
            "NOM": "IGA Maarif"
        }
    },
    {
        "type": "Feature",
        "geometry": {
            "type": "Point",
            "coordinates": [
                -7.6425694,
                33.5838263
            ]
        },
        "properties": {
            "osm_id": "2640328251",
            "code": 2082,
            "fclass": "school",
            "NOM": "Khalil"
        }
    },
    {
        "type": "Feature",
        "geometry": {
            "type": "Point",
            "coordinates": [
                -7.6437432,
                33.5841844
            ]
        },
        "properties": {
            "osm_id": "2640991905",
            "code": 2082,
            "fclass": "school",
            "NOM": "Ennour"
        }
    },
    {
        "type": "Feature",
        "geometry": {
            "type": "Point",
            "coordinates": [
                -7.6261076,
                33.5916192
            ]
        },
        "properties": {
            "osm_id": "2643927889",
            "code": 2082,
            "fclass": "school",
            "NOM": "Art'com Sup"
        }
    },
    {
        "type": "Feature",
        "geometry": {
            "type": "Point",
            "coordinates": [
                -4.428127,
                31.9293967
            ]
        },
        "properties": {
            "osm_id": "2649089914",
            "code": 2082,
            "fclass": "school",
            "NOM": "Collège Al Massira"
        }
    },
    {
        "type": "Feature",
        "geometry": {
            "type": "Point",
            "coordinates": [
                -4.4295486,
                31.9284793
            ]
        },
        "properties": {
            "osm_id": "2649090300",
            "code": 2082,
            "fclass": "school",
            "NOM": "Lycée Sijilmassa"
        }
    },
    {
        "type": "Feature",
        "geometry": {
            "type": "Point",
            "coordinates": [
                -4.4267234,
                31.9269117
            ]
        },
        "properties": {
            "osm_id": "2649091617",
            "code": 2082,
            "fclass": "school",
            "NOM": "Ecole des Filles"
        }
    },
    {
        "type": "Feature",
        "geometry": {
            "type": "Point",
            "coordinates": [
                -4.4314606,
                31.9334562
            ]
        },
        "properties": {
            "osm_id": "2649102814",
            "code": 2082,
            "fclass": "school",
            "NOM": "Ecole Ibn Khaldoun"
        }
    },
    {
        "type": "Feature",
        "geometry": {
            "type": "Point",
            "coordinates": [
                -6.8652036,
                33.9660657
            ]
        },
        "properties": {
            "osm_id": "2649511980",
            "code": 2082,
            "fclass": "school",
            "NOM": "Crèche Ryad"
        }
    },
    {
        "type": "Feature",
        "geometry": {
            "type": "Point",
            "coordinates": [
                -6.8658688,
                33.966039
            ]
        },
        "properties": {
            "osm_id": "2649511987",
            "code": 2082,
            "fclass": "school",
            "NOM": "Centre Socio Educatif de Hay Ryad"
        }
    },
    {
        "type": "Feature",
        "geometry": {
            "type": "Point",
            "coordinates": [
                -6.8658366,
                33.9668843
            ]
        },
        "properties": {
            "osm_id": "2649511990",
            "code": 2082,
            "fclass": "school",
            "NOM": "Ecole Belbachir"
        }
    },
    {
        "type": "Feature",
        "geometry": {
            "type": "Point",
            "coordinates": [
                -6.8700316,
                33.9610647
            ]
        },
        "properties": {
            "osm_id": "2649581547",
            "code": 2082,
            "fclass": "school",
            "NOM": "OFPPT"
        }
    },
    {
        "type": "Feature",
        "geometry": {
            "type": "Point",
            "coordinates": [
                -6.3055717,
                33.8955066
            ]
        },
        "properties": {
            "osm_id": "2684968982",
            "code": 2082,
            "fclass": "school",
            "NOM": "Driss benzekri"
        }
    },
    {
        "type": "Feature",
        "geometry": {
            "type": "Point",
            "coordinates": [
                -6.153806,
                35.1919126
            ]
        },
        "properties": {
            "osm_id": "2689440074",
            "code": 2082,
            "fclass": "school",
            "NOM": "Ibn Khaldoun"
        }
    },
    {
        "type": "Feature",
        "geometry": {
            "type": "Point",
            "coordinates": [
                -6.1557101,
                35.1879657
            ]
        },
        "properties": {
            "osm_id": "2689650713",
            "code": 2082,
            "fclass": "school",
            "NOM": "Les oiseaux du paradis"
        }
    },
    {
        "type": "Feature",
        "geometry": {
            "type": "Point",
            "coordinates": [
                -6.1553343,
                35.1889026
            ]
        },
        "properties": {
            "osm_id": "2689650715",
            "code": 2082,
            "fclass": "school",
            "NOM": "Luis Vives"
        }
    },
    {
        "type": "Feature",
        "geometry": {
            "type": "Point",
            "coordinates": [
                -6.1565456,
                35.1953261
            ]
        },
        "properties": {
            "osm_id": "2689650748",
            "code": 2082,
            "fclass": "school",
            "NOM": "Anas Ibn Malik"
        }
    },
    {
        "type": "Feature",
        "geometry": {
            "type": "Point",
            "coordinates": [
                -6.1675516,
                35.193498
            ]
        },
        "properties": {
            "osm_id": "2689650751",
            "code": 2082,
            "fclass": "school",
            "NOM": ""
        }
    },
    {
        "type": "Feature",
        "geometry": {
            "type": "Point",
            "coordinates": [
                -6.8382314,
                33.9768256
            ]
        },
        "properties": {
            "osm_id": "2690975277",
            "code": 2082,
            "fclass": "school",
            "NOM": "Al Minbat"
        }
    },
    {
        "type": "Feature",
        "geometry": {
            "type": "Point",
            "coordinates": [
                -7.6376429,
                33.5794165
            ]
        },
        "properties": {
            "osm_id": "2711741028",
            "code": 2082,
            "fclass": "school",
            "NOM": "Ecole Barhoumy"
        }
    },
    {
        "type": "Feature",
        "geometry": {
            "type": "Point",
            "coordinates": [
                -7.6330268,
                33.5971264
            ]
        },
        "properties": {
            "osm_id": "2714699195",
            "code": 2082,
            "fclass": "school",
            "NOM": "Collége Omar ElKhayam"
        }
    },
    {
        "type": "Feature",
        "geometry": {
            "type": "Point",
            "coordinates": [
                -7.6329732,
                33.5964651
            ]
        },
        "properties": {
            "osm_id": "2714699197",
            "code": 2082,
            "fclass": "school",
            "NOM": "Lycée ElOuafa"
        }
    },
    {
        "type": "Feature",
        "geometry": {
            "type": "Point",
            "coordinates": [
                -7.6335351,
                33.5957636
            ]
        },
        "properties": {
            "osm_id": "2714699202",
            "code": 2082,
            "fclass": "school",
            "NOM": "Lycée Maimonide"
        }
    },
    {
        "type": "Feature",
        "geometry": {
            "type": "Point",
            "coordinates": [
                -7.6797542,
                33.5756546
            ]
        },
        "properties": {
            "osm_id": "2714778062",
            "code": 2082,
            "fclass": "school",
            "NOM": "Groupe scolaire Elouatki Kaoukabi. Collège lycée Sabrine"
        }
    },
    {
        "type": "Feature",
        "geometry": {
            "type": "Point",
            "coordinates": [
                -7.6781231,
                33.5759912
            ]
        },
        "properties": {
            "osm_id": "2714785479",
            "code": 2082,
            "fclass": "school",
            "NOM": "École La cité"
        }
    },
    {
        "type": "Feature",
        "geometry": {
            "type": "Point",
            "coordinates": [
                -7.6793365,
                33.577175
            ]
        },
        "properties": {
            "osm_id": "2714785480",
            "code": 2082,
            "fclass": "school",
            "NOM": "Maternelle-Primaire Elouatki Kaoukabi"
        }
    },
    {
        "type": "Feature",
        "geometry": {
            "type": "Point",
            "coordinates": [
                -7.6794575,
                33.5591537
            ]
        },
        "properties": {
            "osm_id": "2789431438",
            "code": 2082,
            "fclass": "school",
            "NOM": "Lycée Abd El Aziz El Fachtali"
        }
    },
    {
        "type": "Feature",
        "geometry": {
            "type": "Point",
            "coordinates": [
                -7.6799189,
                33.556999
            ]
        },
        "properties": {
            "osm_id": "2789431453",
            "code": 2082,
            "fclass": "school",
            "NOM": "Collège Iman El Jazouli"
        }
    },
    {
        "type": "Feature",
        "geometry": {
            "type": "Point",
            "coordinates": [
                -6.8988452,
                33.9657728
            ]
        },
        "properties": {
            "osm_id": "2834426216",
            "code": 2082,
            "fclass": "school",
            "NOM": "Lycée Abi Dar Al Ghaffari"
        }
    },
    {
        "type": "Feature",
        "geometry": {
            "type": "Point",
            "coordinates": [
                -5.8150943,
                35.7815877
            ]
        },
        "properties": {
            "osm_id": "2854147832",
            "code": 2082,
            "fclass": "school",
            "NOM": "American Language Center"
        }
    },
    {
        "type": "Feature",
        "geometry": {
            "type": "Point",
            "coordinates": [
                -7.6410403,
                33.5897071
            ]
        },
        "properties": {
            "osm_id": "2879158765",
            "code": 2082,
            "fclass": "school",
            "NOM": "Institut espagnol Juan Ramón Jiménez"
        }
    },
    {
        "type": "Feature",
        "geometry": {
            "type": "Point",
            "coordinates": [
                -7.641448,
                33.5913337
            ]
        },
        "properties": {
            "osm_id": "2879734099",
            "code": 2082,
            "fclass": "school",
            "NOM": "Ecole Dar ANFA مؤسسة دار أنفا"
        }
    },
    {
        "type": "Feature",
        "geometry": {
            "type": "Point",
            "coordinates": [
                -7.6428106,
                33.590364
            ]
        },
        "properties": {
            "osm_id": "2879734100",
            "code": 2082,
            "fclass": "school",
            "NOM": "Lycée Moulay Idriss I ثانوية مولاي إدريس الاول"
        }
    },
    {
        "type": "Feature",
        "geometry": {
            "type": "Point",
            "coordinates": [
                -7.6427355,
                33.5890279
            ]
        },
        "properties": {
            "osm_id": "2879734102",
            "code": 2082,
            "fclass": "school",
            "NOM": "Lycée Walada"
        }
    },
    {
        "type": "Feature",
        "geometry": {
            "type": "Point",
            "coordinates": [
                -6.7609876,
                34.0678671
            ]
        },
        "properties": {
            "osm_id": "2887270710",
            "code": 2082,
            "fclass": "school",
            "NOM": "École primaire Lala Sokayna مدرسة لالة سكينة"
        }
    },
    {
        "type": "Feature",
        "geometry": {
            "type": "Point",
            "coordinates": [
                -7.6375676,
                33.5861041
            ]
        },
        "properties": {
            "osm_id": "2898341908",
            "code": 2082,
            "fclass": "school",
            "NOM": "Collège Ibn Habous"
        }
    },
    {
        "type": "Feature",
        "geometry": {
            "type": "Point",
            "coordinates": [
                -7.9179743,
                31.136702
            ]
        },
        "properties": {
            "osm_id": "2923093323",
            "code": 2082,
            "fclass": "school",
            "NOM": "IMLIL School"
        }
    },
    {
        "type": "Feature",
        "geometry": {
            "type": "Point",
            "coordinates": [
                -8.8592888,
                32.4276755
            ]
        },
        "properties": {
            "osm_id": "2926405578",
            "code": 2082,
            "fclass": "school",
            "NOM": "Ecole primaire publique"
        }
    },
    {
        "type": "Feature",
        "geometry": {
            "type": "Point",
            "coordinates": [
                -7.6160114,
                33.5851823
            ]
        },
        "properties": {
            "osm_id": "2935934501",
            "code": 2082,
            "fclass": "school",
            "NOM": "Groupe Scolaire Les Jumeaux"
        }
    },
    {
        "type": "Feature",
        "geometry": {
            "type": "Point",
            "coordinates": [
                -4.9791271,
                34.0575666
            ]
        },