{
"type": "FeatureCollection",
"name": "hotosm_mar_populated_places_points_geojson",
"features": [
{ "type": "Feature", "properties": { "name": "Zaouiat ben sassi", "name:en": null, "place": "village", "population": null, "is_in": null, "source": null, "name:ar": null, "name:ber": null, "osm_id": 12247142538, "osm_type": "nodes" }, "geometry": { "type": "Point", "coordinates": [ -7.8507281, 31.6901549 ] } },
{ "type": "Feature", "properties": { "name": "Douar draoua", "name:en": null, "place": "village", "population": null, "is_in": null, "source": null, "name:ar": null, "name:ber": null, "osm_id": 12247083042, "osm_type": "nodes" }, "geometry": { "type": "Point", "coordinates": [ -8.1976725, 31.5474423 ] } },
{ "type": "Feature", "properties": { "name": "Tarouma تارومة", "name:en": "Tarouma", "place": "hamlet", "population": null, "is_in": null, "source": null, "name:ar": "تارومة", "name:ber": null, "osm_id": 5299812714, "osm_type": "nodes" }, "geometry": { "type": "Point", "coordinates": [ -13.4855247, 26.9033189 ] } },
{ "type": "Feature", "properties": { "name": "Tizoughrane تزغران", "name:en": "Tizoughrane", "place": "village", "population": null, "is_in": null, "source": null, "name:ar": "تزغران", "name:ber": null, "osm_id": 2298163238, "osm_type": "nodes" }, "geometry": { "type": "Point", "coordinates": [ -9.184519, 29.581159 ] } },
{ "type": "Feature", "properties": { "name": "Tissraouline", "name:en": null, "place": "village", "population": null, "is_in": null, "source": null, "name:ar": "تيسراولين", "name:ber": null, "osm_id": 2955825641, "osm_type": "nodes" }, "geometry": { "type": "Point", "coordinates": [ -5.2444854, 32.2375742 ] } },
{ "type": "Feature", "properties": { "name": "Daimouss ⴷⵉⵎoⵙ الديموس", "name:en": "Daimouss", "place": "village", "population": null, "is_in": null, "source": null, "name:ar": "الديموس", "name:ber": "ⴷⵉⵎoⵙ", "osm_id": 5301907719, "osm_type": "nodes" }, "geometry": { "type": "Point", "coordinates": [ -5.7884129, 35.6914671 ] } },
{ "type": "Feature", "properties": { "name": "Michlifen", "name:en": null, "place": "village", "population": null, "is_in": null, "source": null, "name:ar": "ميشليفن", "name:ber": null, "osm_id": 2656408723, "osm_type": "nodes" }, "geometry": { "type": "Point", "coordinates": [ -5.1766858, 32.2558342 ] } },
{ "type": "Feature", "properties": { "name": "Ait Bouarbi", "name:en": null, "place": "village", "population": null, "is_in": null, "source": null, "name:ar": "أيت بو عربي", "name:ber": null, "osm_id": 2673927664, "osm_type": "nodes" }, "geometry": { "type": "Point", "coordinates": [ -5.0957652, 32.4441942 ] } },
{ "type": "Feature", "properties": { "name": "Ait Abd El Fadel", "name:en": null, "place": "village", "population": null, "is_in": null, "source": null, "name:ar": "أيت عبد الفاضل", "name:ber": null, "osm_id": 2685232812, "osm_type": "nodes" }, "geometry": { "type": "Point", "coordinates": [ -5.0988986, 32.4291131 ] } },
{ "type": "Feature", "properties": { "name": "Sidi Rahhal ⵙⵉⴷⵉ ⵕⵃⵃⴰⵍ سيدي رحال", "name:en": "Sidi Rahhal", "place": "village", "population": null, "is_in": null, "source": null, "name:ar": "سيدي رحال", "name:ber": "ⵙⵉⴷⵉ ⵕⵃⵃⴰⵍ", "osm_id": 1866539888, "osm_type": "nodes" }, "geometry": { "type": "Point", "coordinates": [ -7.4717167, 31.6465849 ] } },
{ "type": "Feature", "properties": { "name": "Id Hamou Omar", "name:en": null, "place": "hamlet", "population": null, "is_in": null, "source": null, "name:ar": "إد حمو عمر", "name:ber": null, "osm_id": 3137635244, "osm_type": "nodes" }, "geometry": { "type": "Point", "coordinates": [ -9.8195183, 29.3260347 ] } },
{ "type": "Feature", "properties": { "name": "Taltemsen", "name:en": null, "place": "village", "population": null, "is_in": null, "source": null, "name:ar": null, "name:ber": null, "osm_id": 9289109066, "osm_type": "nodes" }, "geometry": { "type": "Point", "coordinates": [ -9.0411816, 29.8434574 ] } },
{ "type": "Feature", "properties": { "name": "Midelt ⴰⵡⵟⴰⵟ ميدلت", "name:en": "Midelt", "place": "town", "population": "55304", "is_in": null, "source": null, "name:ar": "ميدلت", "name:ber": "ⴰⵡⵟⴰⵟ", "osm_id": 206387129, "osm_type": "nodes" }, "geometry": { "type": "Point", "coordinates": [ -4.739897, 32.680347 ] } },
{ "type": "Feature", "properties": { "name": "Mirleft ⵎⵉⵔⵍⴼⵜ ميرلفت", "name:en": "Mirleft", "place": "town", "population": null, "is_in": null, "source": null, "name:ar": "ميرلفت", "name:ber": "ⵎⵉⵔⵍⴼⵜ", "osm_id": 245408229, "osm_type": "nodes" }, "geometry": { "type": "Point", "coordinates": [ -10.031733, 29.579707 ] } },
{ "type": "Feature", "properties": { "name": "Tata ⵟⴰⵟⴰ طاطا", "name:en": "Tata", "place": "town", "population": "15239", "is_in": null, "source": null, "name:ar": "طاطا", "name:ber": "ⵟⴰⵟⴰ", "osm_id": 267352453, "osm_type": "nodes" }, "geometry": { "type": "Point", "coordinates": [ -7.9696051, 29.746392 ] } },
{ "type": "Feature", "properties": { "name": "Bouarfa ⴱⵓⵄⴰⵔⴼⴰ بوعرفة", "name:en": "Bouarfa", "place": "city", "population": "28846", "is_in": null, "source": null, "name:ar": "بوعرفة", "name:ber": "ⴱⵓⵄⴰⵔⴼⴰ", "osm_id": 400915111, "osm_type": "nodes" }, "geometry": { "type": "Point", "coordinates": [ -1.963231, 32.532903 ] } },
{ "type": "Feature", "properties": { "name": "Figuig ⵉⴼⵉⵢⵢⵉⵢ فكيك", "name:en": "Figuig", "place": "city", "population": "13306", "is_in": null, "source": null, "name:ar": "فكيك", "name:ber": "ⵉⴼⵉⵢⵢⵉⵢ", "osm_id": 401232144, "osm_type": "nodes" }, "geometry": { "type": "Point", "coordinates": [ -1.230396, 32.115048 ] } },
{ "type": "Feature", "properties": { "name": "Ras El Ma ⵉⵅⴼ ⵏ ⵡⴰⵎⴰⵏ رأس الماء", "name:en": "Ras El Ma", "place": "village", "population": null, "is_in": null, "source": null, "name:ar": "رأس الماء", "name:ber": "ⵉⵅⴼ ⵏ ⵡⴰⵎⴰⵏ", "osm_id": 410456325, "osm_type": "nodes" }, "geometry": { "type": "Point", "coordinates": [ -2.4227911, 35.1372835 ] } },
{ "type": "Feature", "properties": { "name": "Er-Rich ⴰⵔⵔⵉⵛ الريش", "name:en": "Er-Rich", "place": "town", "population": "25992", "is_in": null, "source": null, "name:ar": "الريش", "name:ber": "ⴰⵔⵔⵉⵛ", "osm_id": 663766321, "osm_type": "nodes" }, "geometry": { "type": "Point", "coordinates": [ -4.498189, 32.25677 ] } },
{ "type": "Feature", "properties": { "name": "M'Hamid El Ghizlane ⵎⵃⴰⵎⵉⴷ ⵍⵖⵯⵣⵍⴰⵏ امحاميد الغزلان", "name:en": "M'Hamid El Ghizlane", "place": "village", "population": null, "is_in": null, "source": null, "name:ar": "امحاميد الغزلان", "name:ber": "ⵎⵃⴰⵎⵉⴷ ⵍⵖⵯⵣⵍⴰⵏ", "osm_id": 1001313724, "osm_type": "nodes" }, "geometry": { "type": "Point", "coordinates": [ -5.721689, 29.825359 ] } },
{ "type": "Feature", "properties": { "name": "Tagounite ⵜⴰⴳⵓⵏⵉⵜ تاكنيت", "name:en": "Tagounite", "place": "town", "population": null, "is_in": null, "source": null, "name:ar": "تاكنيت", "name:ber": "ⵜⴰⴳⵓⵏⵉⵜ", "osm_id": 1001313735, "osm_type": "nodes" }, "geometry": { "type": "Point", "coordinates": [ -5.5832329, 29.978887 ] } },
{ "type": "Feature", "properties": { "name": "Sidi Ouassay ⵙⵉⴷⵉ ⵡⴰⵙⴰⵢ سيدي وساي", "name:en": "Sidi Ouassay", "place": "village", "population": null, "is_in": null, "source": null, "name:ar": "سيدي وساي", "name:ber": "ⵙⵉⴷⵉ ⵡⴰⵙⴰⵢ", "osm_id": 1036329868, "osm_type": "nodes" }, "geometry": { "type": "Point", "coordinates": [ -9.68548, 30.056555 ] } },
{ "type": "Feature", "properties": { "name": "Talsint ⵜⴰⵍⵙⵉⵏⵜ تالسينت", "name:en": "Talsint", "place": "town", "population": "9079", "is_in": null, "source": null, "name:ar": "تالسينت", "name:ber": "ⵜⴰⵍⵙⵉⵏⵜ", "osm_id": 1037240744, "osm_type": "nodes" }, "geometry": { "type": "Point", "coordinates": [ -3.439467, 32.535512 ] } },
{ "type": "Feature", "properties": { "name": "Arbaa Sahel ⵄⵕⴱⴰ ⵏ ⵙⴰⵃⵍ أربعاء الساحل", "name:en": "Arbaa Sahel", "place": "village", "population": null, "is_in": null, "source": null, "name:ar": "أربعاء الساحل", "name:ber": "ⵄⵕⴱⴰ ⵏ ⵙⴰⵃⵍ", "osm_id": 1051317990, "osm_type": "nodes" }, "geometry": { "type": "Point", "coordinates": [ -9.9172448, 29.6048891 ] } },
{ "type": "Feature", "properties": { "name": "Tnine Amellou ⵜⵏⵉⵏ ⴰⵎⵍⵍⵓ اثنين أملو", "name:en": "Tnine Amellou", "place": "village", "population": null, "is_in": null, "source": null, "name:ar": "اثنين أملو", "name:ber": "ⵜⵏⵉⵏ ⴰⵎⵍⵍⵓ", "osm_id": 1068010721, "osm_type": "nodes" }, "geometry": { "type": "Point", "coordinates": [ -10.020624, 29.292717 ] } },
{ "type": "Feature", "properties": { "name": "Arbaa Rasmouka ⵄⵔⴱⴰ ⵏ ⵔⵙⵎⵓⴽⴰ أربعاء رسموكة", "name:en": "Arbaa Rasmouka", "place": "village", "population": null, "is_in": null, "source": null, "name:ar": "أربعاء رسموكة", "name:ber": "ⵄⵔⴱⴰ ⵏ ⵔⵙⵎⵓⴽⴰ", "osm_id": 1078676359, "osm_type": "nodes" }, "geometry": { "type": "Point", "coordinates": [ -9.549286, 29.801567 ] } },
{ "type": "Feature", "properties": { "name": "Temsia ⵜⴻⵎⵙⵉⵢⴰ التمسية", "name:en": "Temsia", "place": "town", "population": "40780", "is_in": null, "source": null, "name:ar": "التمسية", "name:ber": "ⵜⴻⵎⵙⵉⵢⴰ", "osm_id": 1082509998, "osm_type": "nodes" }, "geometry": { "type": "Point", "coordinates": [ -9.417027, 30.363795 ] } },
{ "type": "Feature", "properties": { "name": "Amtoudi ⴰⵎⵟⴹⵉ أمطضي", "name:en": "Amtoudi", "place": "village", "population": null, "is_in": null, "source": null, "name:ar": "أمطضي", "name:ber": "ⴰⵎⵟⴹⵉ", "osm_id": 1083611900, "osm_type": "nodes" }, "geometry": { "type": "Point", "coordinates": [ -9.183945, 29.242741 ] } },
{ "type": "Feature", "properties": { "name": "Tinejdad ⵜⵉⵏⵊⴷⴰⴷ تنجداد", "name:en": "Tinejdad", "place": "town", "population": null, "is_in": null, "source": null, "name:ar": "تنجداد", "name:ber": "ⵜⵉⵏⵊⴷⴰⴷ", "osm_id": 1140727169, "osm_type": "nodes" }, "geometry": { "type": "Point", "coordinates": [ -5.03382, 31.510201 ] } },
{ "type": "Feature", "properties": { "name": "Debdou ⴷⴱⴷⵓ دبدو", "name:en": "Debdou", "place": "town", "population": null, "is_in": null, "source": null, "name:ar": "دبدو", "name:ber": "ⴷⴱⴷⵓ", "osm_id": 1242359872, "osm_type": "nodes" }, "geometry": { "type": "Point", "coordinates": [ -3.039726, 33.986368 ] } },
{ "type": "Feature", "properties": { "name": "Tiztoutine ⵜⵉⵥⴹⵓⴹⵉⵏ تيزضوضين", "name:en": "Tiztoutine", "place": "village", "population": "10040", "is_in": null, "source": null, "name:ar": "تيزضوضين", "name:ber": "ⵜⵉⵥⴹⵓⴹⵉⵏ", "osm_id": 1574964751, "osm_type": "nodes" }, "geometry": { "type": "Point", "coordinates": [ -3.155905, 34.97259 ] } },
{ "type": "Feature", "properties": { "name": "Zaïo ⵣⴰⵢⵢⵓ زايو", "name:en": "Zaïo", "place": "town", "population": "49340", "is_in": null, "source": null, "name:ar": "زايو", "name:ber": "ⵣⴰⵉⵓ", "osm_id": 1578437894, "osm_type": "nodes" }, "geometry": { "type": "Point", "coordinates": [ -2.734164, 34.941906 ] } },
{ "type": "Feature", "properties": { "name": "Guefait ⵜⴰⴳⴼⴰⵢⵜ كفايت", "name:en": "Guefait", "place": "village", "population": null, "is_in": null, "source": "IGN map", "name:ar": "كفايت", "name:ber": "ⵜⴰⴳⴼⴰⵢⵜ", "osm_id": 1650472008, "osm_type": "nodes" }, "geometry": { "type": "Point", "coordinates": [ -2.4058207, 34.2427272 ] } },
{ "type": "Feature", "properties": { "name": "Assoul ⴰⵙⵓⵍ أسول", "name:en": "Assoul", "place": "town", "population": null, "is_in": null, "source": null, "name:ar": "أسول", "name:ber": "ⴰⵙⵓⵍ", "osm_id": 1653069314, "osm_type": "nodes" }, "geometry": { "type": "Point", "coordinates": [ -5.202998, 31.94966 ] } },
{ "type": "Feature", "properties": { "name": "Beni Ensar ⴱⵏⵉ ⵏⵚⴰⵔ بني انصار", "name:en": "Beni Ansar / Aït Nsar", "place": "town", "population": "31800", "is_in": null, "source": null, "name:ar": "بني انصار", "name:ber": "ⴱⵏⵉ ⵏⵚⴰⵔ", "osm_id": 1863757417, "osm_type": "nodes" }, "geometry": { "type": "Point", "coordinates": [ -2.933644, 35.259687 ] } },
{ "type": "Feature", "properties": { "name": "Farkhana ⴼⴰⵕⵅⴰⵏⴰ فرخانة", "name:en": "Farkhana", "place": "town", "population": "10994", "is_in": null, "source": null, "name:ar": "فرخانة", "name:ber": "ⴼⴰⵕⵅⴰⵏⴰ", "osm_id": 1884851469, "osm_type": "nodes" }, "geometry": { "type": "Point", "coordinates": [ -2.980918, 35.286107 ] } },
{ "type": "Feature", "properties": { "name": "إفران الأطلس الصغير", "name:en": "Ifrane Atlas-Saghir", "place": "town", "population": null, "is_in": null, "source": null, "name:ar": "إفران الأطلس الصغير", "name:ber": null, "osm_id": 1886650445, "osm_type": "nodes" }, "geometry": { "type": "Point", "coordinates": [ -9.491069, 29.218819 ] } },
{ "type": "Feature", "properties": { "name": "Tassrirt ⵜⴰⵙⵔⵉⵔⵜ تاسريرت", "name:en": "Tassrirt", "place": "village", "population": null, "is_in": null, "source": null, "name:ar": "تاسريرت", "name:ber": "ⵜⴰⵙⵔⵉⵔⵜ", "osm_id": 1888060939, "osm_type": "nodes" }, "geometry": { "type": "Point", "coordinates": [ -8.916288, 29.606351 ] } },
{ "type": "Feature", "properties": { "name": "Tamsaout", "name:en": "Tamsaout", "place": "village", "population": null, "is_in": null, "source": null, "name:ar": null, "name:ber": null, "osm_id": 1888060940, "osm_type": "nodes" }, "geometry": { "type": "Point", "coordinates": [ -8.862341, 29.539509 ] } },
{ "type": "Feature", "properties": { "name": "El Menbar ⵍⵎⵏⴱⴰⵔ المنبر", "name:en": "El Menbar", "place": "village", "population": null, "is_in": null, "source": null, "name:ar": "المنبر", "name:ber": "ⵍⵎⵏⴱⴰⵔ", "osm_id": 5301907720, "osm_type": "nodes" }, "geometry": { "type": "Point", "coordinates": [ -5.7764571, 35.6971826 ] } },
{ "type": "Feature", "properties": { "name": "Moqrisset مقريصات", "name:en": "Moqrisset", "place": "village", "population": null, "is_in": null, "source": null, "name:ar": "مقريصات", "name:ber": null, "osm_id": 1103575874, "osm_type": "nodes" }, "geometry": { "type": "Point", "coordinates": [ -5.349211, 34.923522 ] } },
{ "type": "Feature", "properties": { "name": "Ait Sidi Daoud ⴰⵢⵜ ⵙⵉⴷⵉ ⴷⴰⵡⴷ آيت سيدي داود", "name:en": "Ait Sidi Daoud", "place": "village", "population": "18976", "is_in": null, "source": null, "name:ar": "آيت سيدي داود", "name:ber": "ⴰⵢⵜ ⵙⵉⴷⵉ ⴷⴰⵡⴷ", "osm_id": 2272906985, "osm_type": "nodes" }, "geometry": { "type": "Point", "coordinates": [ -7.6857162, 31.6344693 ] } },
{ "type": "Feature", "properties": { "name": "ⵜⴰⵛⵡⴰⵔⵉⵜ", "name:en": null, "place": "village", "population": null, "is_in": null, "source": null, "name:ar": null, "name:ber": "ⵜⴰⵛⵡⴰⵔⵉⵜ", "osm_id": 2974446895, "osm_type": "nodes" }, "geometry": { "type": "Point", "coordinates": [ -9.4882214, 29.7667581 ] } },
{ "type": "Feature", "properties": { "name": "Bounu", "name:en": null, "place": "village", "population": null, "is_in": null, "source": null, "name:ar": null, "name:ber": null, "osm_id": 11375915000, "osm_type": "nodes" }, "geometry": { "type": "Point", "coordinates": [ -5.6645288, 29.8118233 ] } },
{ "type": "Feature", "properties": { "name": "Agti El Ghazi ⴰⴳⵜⵉ ⵍⵖⴰⵣⵉ أغتي الغازي", "name:en": "Agti El Ghazi", "place": "village", "population": null, "is_in": null, "source": null, "name:ar": "أغتي الغازي", "name:ber": "ⴰⴳⵜⵉ ⵍⵖⴰⵣⵉ", "osm_id": 2801310265, "osm_type": "nodes" }, "geometry": { "type": "Point", "coordinates": [ -14.2019306, 26.3832875 ] } },
{ "type": "Feature", "properties": { "name": "Sidi Bibi ⵙⵉⴷⵉ ⴱⵉⴱⵉ سيدي بيبي", "name:en": "Sidi Bibi", "place": "town", "population": "39042", "is_in": null, "source": null, "name:ar": "سيدي بيبي", "name:ber": "ⵙⵉⴷⵉ ⴱⵉⴱⵉ", "osm_id": 698657908, "osm_type": "nodes" }, "geometry": { "type": "Point", "coordinates": [ -9.526828, 30.237084 ] } },
{ "type": "Feature", "properties": { "name": "Sidi Ifni ⵙⵉⴷⵉ ⵉⴼⵏⵉ سيدي إفني", "name:en": "Sidi Ifni", "place": "city", "population": null, "is_in": null, "source": null, "name:ar": "سيدي إفني", "name:ber": "ⵙⵉⴷⵉ ⵉⴼⵍⵉ", "osm_id": 256919926, "osm_type": "nodes" }, "geometry": { "type": "Point", "coordinates": [ -10.1715632, 29.3791253 ] } },
{ "type": "Feature", "properties": { "name": "Tafraout ⵜⴰⴼⵔⴰⵡⵜ تافراوت", "name:en": "Tafraout", "place": "town", "population": null, "is_in": null, "source": null, "name:ar": "تافراوت", "name:ber": "ⵜⴰⴼⵔⴰⵡⵜ", "osm_id": 387808365, "osm_type": "nodes" }, "geometry": { "type": "Point", "coordinates": [ -8.9744529, 29.720472 ] } },
{ "type": "Feature", "properties": { "name": "Irigh N'Tahala إيريغ نتاهلة", "name:en": "Irigh N'Tahala", "place": "village", "population": null, "is_in": null, "source": null, "name:ar": "إيريغ نتاهلة", "name:ber": null, "osm_id": 387846179, "osm_type": "nodes" }, "geometry": { "type": "Point", "coordinates": [ -9.090052, 29.63941 ] } },
{ "type": "Feature", "properties": { "name": "Saïdia ⵙⵄⵉⴷⵉⵢⴰ السعيدية", "name:en": "Saïdia", "place": "town", "population": "18000", "is_in": null, "source": null, "name:ar": "السعيدية", "name:ber": "ⵙⵄⵉⴷⵉⵢⴰ", "osm_id": 391544955, "osm_type": "nodes" }, "geometry": { "type": "Point", "coordinates": [ -2.2245756, 35.0822208 ] } },
{ "type": "Feature", "properties": { "name": "Ahfir ⴰⵃⴼⵉⵔ أحفير", "name:en": "Ahfir", "place": "town", "population": "19482", "is_in": null, "source": null, "name:ar": "أحفير", "name:ber": "ⴰⵃⴼⵉⵔ", "osm_id": 391550616, "osm_type": "nodes" }, "geometry": { "type": "Point", "coordinates": [ -2.100793, 34.955281 ] } },
{ "type": "Feature", "properties": { "name": "Ait Baha ⴰⵉⵜ ⴱⴰⵀⴰ ايت باها", "name:en": "Ait Baha", "place": "town", "population": null, "is_in": null, "source": null, "name:ar": "ايت باها", "name:ber": "ⴰⵉⵜ ⴱⴰⵀⴰ", "osm_id": 606940190, "osm_type": "nodes" }, "geometry": { "type": "Point", "coordinates": [ -9.154578, 30.070334 ] } },
{ "type": "Feature", "properties": { "name": "Goulmima ⴳⵓⵍⵎⵉⵎⴰ كلميمة", "name:en": "Goulmima", "place": "town", "population": "16419", "is_in": null, "source": null, "name:ar": "كلميمة", "name:ber": "ⴳⵓⵍⵎⵉⵎⴰ", "osm_id": 626127748, "osm_type": "nodes" }, "geometry": { "type": "Point", "coordinates": [ -4.953262, 31.692627 ] } },
{ "type": "Feature", "properties": { "name": "Massa ⵎⴰⵙⵙⴰ ماسة", "name:en": "Massa", "place": "town", "population": null, "is_in": null, "source": null, "name:ar": "ماسة", "name:ber": "ⵎⴰⵙⵙⴰ", "osm_id": 1036329834, "osm_type": "nodes" }, "geometry": { "type": "Point", "coordinates": [ -9.6409, 29.972463 ] } },
{ "type": "Feature", "properties": { "name": "Al Aaroui ⵍⵄⴰⵔⵡⵉ العروي", "name:en": "Al Aaroui", "place": "town", "population": "36566", "is_in": null, "source": null, "name:ar": "العروي", "name:ber": "ⵍⵄⴰⵔⵡⵉ", "osm_id": 1101601383, "osm_type": "nodes" }, "geometry": { "type": "Point", "coordinates": [ -3.012265, 35.010185 ] } },
{ "type": "Feature", "properties": { "name": "Belfaa ⴱⵍⴼⴰⵄ بلفاع", "name:en": "Belfaa", "place": "town", "population": "27699", "is_in": null, "source": null, "name:ar": "بلفاع", "name:ber": "ⴱⵍⴼⴰⵄ", "osm_id": 1110186094, "osm_type": "nodes" }, "geometry": { "type": "Point", "coordinates": [ -9.5641729, 30.0484384 ] } },
{ "type": "Feature", "properties": { "name": "Gourrama ⴳⵯⵔⵔⴰⵎⴰ كرامة", "name:en": "Gourrama", "place": "town", "population": null, "is_in": null, "source": null, "name:ar": "كرامة", "name:ber": "ⴳⵯⵔⵔⴰⵎⴰ", "osm_id": 1120463537, "osm_type": "nodes" }, "geometry": { "type": "Point", "coordinates": [ -4.073812, 32.341425 ] } },
{ "type": "Feature", "properties": { "name": "Anemzi أنمزي", "name:en": "Anemzi", "place": "village", "population": null, "is_in": null, "source": null, "name:ar": "أنمزي", "name:ber": null, "osm_id": 1460519441, "osm_type": "nodes" }, "geometry": { "type": "Point", "coordinates": [ -5.2664076, 32.3241829 ] } },
{ "type": "Feature", "properties": { "name": "Zeghanghane ⴰⵣⵖⴰⵏⵖⴰⵏ أزغنغان", "name:en": "Zeghanghane", "place": "town", "population": "20181", "is_in": null, "source": null, "name:ar": "أزغنغان", "name:ber": "ⴰⵣⵖⴰⵏⵖⴰⵏ", "osm_id": 1578592887, "osm_type": "nodes" }, "geometry": { "type": "Point", "coordinates": [ -3.004546, 35.155014 ] } },
{ "type": "Feature", "properties": { "name": "Tighmi تغمي", "name:en": "Tighmi", "place": "village", "population": null, "is_in": null, "source": null, "name:ar": "تغمي", "name:ber": null, "osm_id": 1596152615, "osm_type": "nodes" }, "geometry": { "type": "Point", "coordinates": [ -9.419788, 29.5826758 ] } },
{ "type": "Feature", "properties": { "name": "Selouane ⵙⵍⵡⴰⵏ سلوان", "name:en": "Selouane", "place": "town", "population": "24877", "is_in": null, "source": null, "name:ar": "سلوان", "name:ber": "ⵙⵍⵡⴰⵏ", "osm_id": 1688890307, "osm_type": "nodes" }, "geometry": { "type": "Point", "coordinates": [ -2.941719, 35.07284 ] } },
{ "type": "Feature", "properties": { "name": "Ksar El Khorbat ⵉⵖⵕⵎ ⵍⵅⵯⵔⴱⴰⵜ", "name:en": "Ksar El Khorbat", "place": "village", "population": null, "is_in": null, "source": null, "name:ar": null, "name:ber": "ⵉⵖⵕⵎ ⵍⵅⵯⵔⴱⴰⵜ", "osm_id": 1710033617, "osm_type": "nodes" }, "geometry": { "type": "Point", "coordinates": [ -5.0844816, 31.4935127 ] } },
{ "type": "Feature", "properties": { "name": "Foum Zguid ⵉⵎⵉ ⵥⴰⴳⴳⵉⴷ فم زكيد", "name:en": "Foum Zguid", "place": "town", "population": null, "is_in": null, "source": null, "name:ar": "فم زكيد", "name:ber": "ⵉⵎⵉ ⵥⴰⴳⴳⵉⴷ", "osm_id": 1723404758, "osm_type": "nodes" }, "geometry": { "type": "Point", "coordinates": [ -6.874903, 30.085933 ] } },
{ "type": "Feature", "properties": { "name": "Tissint ⵜⵉⵙⵉⵏⵜ تسينت", "name:en": "Tissint", "place": "town", "population": null, "is_in": null, "source": null, "name:ar": "تسينت", "name:ber": "ⵜⵉⵙⵉⵏⵜ", "osm_id": 1723406414, "osm_type": "nodes" }, "geometry": { "type": "Point", "coordinates": [ -7.317869, 29.903192 ] } },
{ "type": "Feature", "properties": { "name": "Akka ⴰⵇⵇⴰ أقا", "name:en": "Akka", "place": "town", "population": "7102", "is_in": null, "source": null, "name:ar": "أقا", "name:ber": "ⴰⵇⵇⴰ", "osm_id": 1723406957, "osm_type": "nodes" }, "geometry": { "type": "Point", "coordinates": [ -8.256762, 29.391861 ] } },
{ "type": "Feature", "properties": { "name": "Guercif ⴳⴰⵔⵙⵉⴼ جرسيف", "name:en": "Guercif", "place": "town", "population": "57307", "is_in": null, "source": null, "name:ar": "جرسيف", "name:ber": "ⴳⴰⵔⵙⵉⴼ", "osm_id": 1863760202, "osm_type": "nodes" }, "geometry": { "type": "Point", "coordinates": [ -3.352345, 34.225576 ] } },
{ "type": "Feature", "properties": { "name": "Jerada ⵊⵔⴰⴷⴰ جرادة", "name:en": "Jerada", "place": "town", "population": "43506", "is_in": null, "source": null, "name:ar": "جرادة", "name:ber": "ⵊⵔⴰⴷⴰ", "osm_id": 1863762442, "osm_type": "nodes" }, "geometry": { "type": "Point", "coordinates": [ -2.159979, 34.310531 ] } },
{ "type": "Feature", "properties": { "name": "Khamlia ⵅⵎⵍⵢⵢⴰ خملية", "name:en": "Khamlia", "place": "village", "population": null, "is_in": null, "source": null, "name:ar": "خملية", "name:ber": "ⵅⵎⵍⵢⵢⴰ", "osm_id": 1885287906, "osm_type": "nodes" }, "geometry": { "type": "Point", "coordinates": [ -4.0072527, 31.0351174 ] } },
{ "type": "Feature", "properties": { "name": "Touissit ⵜⵡⵉⵙⵉⵜ تويسيت", "name:en": "Touissit", "place": "village", "population": null, "is_in": null, "source": null, "name:ar": "تويسيت", "name:ber": "ⵜⵡⵉⵙⵉⵜ", "osm_id": 1894017228, "osm_type": "nodes" }, "geometry": { "type": "Point", "coordinates": [ -1.768541, 34.479125 ] } },
{ "type": "Feature", "properties": { "name": "Iksane ⵉⴽⵙⴰⵏ إكسان", "name:en": "Iksane", "place": "village", "population": null, "is_in": null, "source": null, "name:ar": "إكسان", "name:ber": "ⵉⴽⵙⴰⵏ", "osm_id": 1938288669, "osm_type": "nodes" }, "geometry": { "type": "Point", "coordinates": [ -3.0318358, 35.1328054 ] } },
{ "type": "Feature", "properties": { "name": "Bni Drar ⴱⵏⵉ ⴷⵔⴰⵔ بني درار", "name:en": "Bni Drar", "place": "town", "population": "11083", "is_in": null, "source": null, "name:ar": "بني درار", "name:ber": "ⴱⵏⵉ ⴷⵔⴰⵔ", "osm_id": 1943405251, "osm_type": "nodes" }, "geometry": { "type": "Point", "coordinates": [ -1.991664, 34.859507 ] } },
{ "type": "Feature", "properties": { "name": "Ain Lehjer عين لحجر", "name:en": "Ain Lehjer", "place": "village", "population": null, "is_in": null, "source": null, "name:ar": "عين لحجر", "name:ber": null, "osm_id": 1983792440, "osm_type": "nodes" }, "geometry": { "type": "Point", "coordinates": [ -2.480355, 34.546546 ] } },
{ "type": "Feature", "properties": { "name": "Mechraa Hammadi ⵎⵛⵕⵄ ⵃⵎⵎⴰⴷⵉ مشرا حمادي", "name:en": "Mechraa Hammadi", "place": "village", "population": null, "is_in": null, "source": null, "name:ar": "مشرا حمادي", "name:ber": "ⵎⵛⵕⵄ ⵃⵎⵎⴰⴷⵉ", "osm_id": 1983805115, "osm_type": "nodes" }, "geometry": { "type": "Point", "coordinates": [ -2.799057, 34.733519 ] } },
{ "type": "Feature", "properties": { "name": "Gteter ⴳⵯⵜⴰⵜⵔ غوتاتر", "name:en": "Gteter", "place": "village", "population": null, "is_in": null, "source": null, "name:ar": "غوتاتر", "name:ber": "ⴳⵯⵜⴰⵜⵔ", "osm_id": 1983859500, "osm_type": "nodes" }, "geometry": { "type": "Point", "coordinates": [ -3.064779, 34.351957 ] } },
{ "type": "Feature", "properties": { "name": "Sidi Ali Belkassem سيدي علي بلقاسم", "name:en": "Sidi Ali Belkassem", "place": "village", "population": null, "is_in": null, "source": null, "name:ar": "سيدي علي بلقاسم", "name:ber": null, "osm_id": 1983859547, "osm_type": "nodes" }, "geometry": { "type": "Point", "coordinates": [ -2.967634, 34.08824 ] } },
{ "type": "Feature", "properties": { "name": "Tancherfi تنشرفي", "name:en": "Tancherfi", "place": "village", "population": null, "is_in": null, "source": null, "name:ar": "تنشرفي", "name:ber": null, "osm_id": 1983859586, "osm_type": "nodes" }, "geometry": { "type": "Point", "coordinates": [ -2.642107, 34.375976 ] } },
{ "type": "Feature", "properties": { "name": "Boudnib ⴱⵓⴷⵏⵉⴱ بوذنيب", "name:en": "Boudnib", "place": "town", "population": null, "is_in": null, "source": null, "name:ar": "بوذنيب", "name:ber": "ⴱⵓⴷⵏⵉⴱ", "osm_id": 2009279842, "osm_type": "nodes" }, "geometry": { "type": "Point", "coordinates": [ -3.607987, 31.951733 ] } },
{ "type": "Feature", "properties": { "name": "Ammelne ⴰⵎⵍⴰⵏ أملن", "name:en": "Ammelne", "place": "village", "population": null, "is_in": null, "source": null, "name:ar": "أملن", "name:ber": "ⴰⵎⵍⴰⵏ", "osm_id": 2014978585, "osm_type": "nodes" }, "geometry": { "type": "Point", "coordinates": [ -8.967174, 29.753625 ] } },
{ "type": "Feature", "properties": { "name": "Amersid", "name:en": null, "place": "village", "population": null, "is_in": null, "source": null, "name:ar": null, "name:ber": null, "osm_id": 2021315933, "osm_type": "nodes" }, "geometry": { "type": "Point", "coordinates": [ -4.439586, 32.720945 ] } },
{ "type": "Feature", "properties": { "name": "Afella Ighir ⴰⴼⵍⴰ ⵉⵖⵉⵔ أفلا اغير", "name:en": "Afella Ighir", "place": "village", "population": null, "is_in": null, "source": null, "name:ar": "أفلا اغير", "name:ber": "ⴰⴼⵍⴰ ⵉⵖⵉⵔ", "osm_id": 2023547495, "osm_type": "nodes" }, "geometry": { "type": "Point", "coordinates": [ -8.817405, 29.503012 ] } },
{ "type": "Feature", "properties": { "name": "Alnif ⴰⵍⵏⵉⴼ النيف", "name:en": "Alnif", "place": "town", "population": "22724", "is_in": null, "source": null, "name:ar": "النيف", "name:ber": "ⴰⵏ ⵏⵉⴼ", "osm_id": 2051885014, "osm_type": "nodes" }, "geometry": { "type": "Point", "coordinates": [ -5.16687, 31.116268 ] } },
{ "type": "Feature", "properties": { "name": "Ida Ou Gougmar إد أو ڭوڭمار", "name:en": "Ida Ou Gougmar", "place": "village", "population": null, "is_in": null, "source": null, "name:ar": "إد أو ڭوڭمار", "name:ber": null, "osm_id": 2139213601, "osm_type": "nodes" }, "geometry": { "type": "Point", "coordinates": [ -9.338111, 29.509444 ] } },
{ "type": "Feature", "properties": { "name": "Tanalt ⵜⴰⵏⴰⵍⵜ تانالت", "name:en": "Tanalt", "place": "village", "population": null, "is_in": null, "source": null, "name:ar": "تانالت", "name:ber": null, "osm_id": 2157875134, "osm_type": "nodes" }, "geometry": { "type": "Point", "coordinates": [ -9.168485, 29.774917 ] } },
{ "type": "Feature", "properties": { "name": "Oulad M'Hammed", "name:en": null, "place": "village", "population": null, "is_in": null, "source": null, "name:ar": null, "name:ber": null, "osm_id": 2196379626, "osm_type": "nodes" }, "geometry": { "type": "Point", "coordinates": [ -3.109464, 33.63468 ] } },
{ "type": "Feature", "properties": { "name": "Itzer", "name:en": null, "place": "village", "population": null, "is_in": null, "source": null, "name:ar": null, "name:ber": null, "osm_id": 2204423155, "osm_type": "nodes" }, "geometry": { "type": "Point", "coordinates": [ -5.054056, 32.879137 ] } },
{ "type": "Feature", "properties": { "name": "Boumia ⴱⵓⵎⵢⵢⴰ بومية", "name:en": "Boumia", "place": "town", "population": null, "is_in": null, "source": null, "name:ar": "بومية", "name:ber": "ⴱⵓⵎⵢⵢⴰ", "osm_id": 2204441513, "osm_type": "nodes" }, "geometry": { "type": "Point", "coordinates": [ -5.101769, 32.725274 ] } },
{ "type": "Feature", "properties": { "name": "Kerrouchen ⴽⵔⵔⵓⵛⵏ كروشن", "name:en": "Kerrouchen", "place": "village", "population": null, "is_in": null, "source": null, "name:ar": "كروشن", "name:ber": "ⴽⵔⵔⵓⵛⵏ", "osm_id": 2204472112, "osm_type": "nodes" }, "geometry": { "type": "Point", "coordinates": [ -5.321974, 32.800082 ] } },
{ "type": "Feature", "properties": { "name": "Mibladen", "name:en": null, "place": "village", "population": null, "is_in": null, "source": null, "name:ar": null, "name:ber": null, "osm_id": 2207573358, "osm_type": "nodes" }, "geometry": { "type": "Point", "coordinates": [ -4.63014, 32.765627 ] } },
{ "type": "Feature", "properties": { "name": "Ouirgane ⵡⵉⵔⴳⴰⵏ ويرڭان", "name:en": "Ouirgane", "place": "village", "population": null, "is_in": null, "source": null, "name:ar": "ويرڭان", "name:ber": "ⵡⵉⵔⴳⴰⵏ", "osm_id": 2212191257, "osm_type": "nodes" }, "geometry": { "type": "Point", "coordinates": [ -8.0789, 31.175727 ] } },
{ "type": "Feature", "properties": { "name": "Ijoukak ⵉⵊⵓⴽⴰⴽ إجوكاك", "name:en": "Ijoukak", "place": "village", "population": null, "is_in": null, "source": null, "name:ar": "إجوكاك", "name:ber": "ⵉⵊⵓⴽⴰⴽ", "osm_id": 2212195063, "osm_type": "nodes" }, "geometry": { "type": "Point", "coordinates": [ -8.1534705, 30.9932031 ] } },
{ "type": "Feature", "properties": { "name": "Bounaamane ⴱⵓⵏⵄⵎⴰⵏ بونعمان", "name:en": "Bounaamane", "place": "village", "population": null, "is_in": null, "source": null, "name:ar": "بونعمان", "name:ber": "ⴱⵓⵏⵄⵎⴰⵏ", "osm_id": 2217364282, "osm_type": "nodes" }, "geometry": { "type": "Point", "coordinates": [ -9.81502, 29.529984 ] } },
{ "type": "Feature", "properties": { "name": "Sidi Bouabdelli سيدي بو عبد اللي", "name:en": "Sidi Bouabdelli", "place": "village", "population": null, "is_in": null, "source": null, "name:ar": "سيدي بو عبد اللي", "name:ber": null, "osm_id": 2217367142, "osm_type": "nodes" }, "geometry": { "type": "Point", "coordinates": [ -9.83042, 29.481411 ] } },
{ "type": "Feature", "properties": { "name": "Arbaa Aït Abdellah ⵍⵄⵕⴱⴰ ⵏ ⴰⵢⵜ ⵄⴰⴱⴷⵓⵍⵍⴰⵀ أربعاء آيت عبدالله", "name:en": "Arbaa Ait Abdellah", "place": "village", "population": null, "is_in": null, "source": null, "name:ar": "أربعاء آيت عبدالله", "name:ber": "ⵍⵄⵕⴱⴰ ⵏ ⴰⵢⵜ ⵄⴰⴱⴷⵓⵍⵍⴰⵀ", "osm_id": 2217375187, "osm_type": "nodes" }, "geometry": { "type": "Point", "coordinates": [ -9.903702, 29.34584 ] } },
{ "type": "Feature", "properties": { "name": "Tangarfa ⵜⴰⵏⴳⴰⵔⴼⴰ تانڭرفا", "name:en": "Tangarfa", "place": "village", "population": null, "is_in": null, "source": null, "name:ar": "تانڭرفا", "name:ber": "ⵜⴰⵏⴳⴰⵔⴼⴰ", "osm_id": 2217376296, "osm_type": "nodes" }, "geometry": { "type": "Point", "coordinates": [ -9.941167, 29.283527 ] } },
{ "type": "Feature", "properties": { "name": "El Maader El Kabir ⵍⵎⵄⴷⵕ ⵍⴽⴱⵉⵔ المعدر الكبير", "name:en": "El Maader El Kabir", "place": "village", "population": null, "is_in": null, "source": null, "name:ar": "المعدر الكبير", "name:ber": "ⵍⵎⵄⴷⵕ ⵍⴽⴱⵉⵔ", "osm_id": 2273212868, "osm_type": "nodes" }, "geometry": { "type": "Point", "coordinates": [ -9.6570983, 29.7600856 ] } },
{ "type": "Feature", "properties": { "name": "Ouijjane ويجّان", "name:en": "Ouijjane", "place": "village", "population": null, "is_in": null, "source": null, "name:ar": "ويجّان", "name:ber": null, "osm_id": 2273220282, "osm_type": "nodes" }, "geometry": { "type": "Point", "coordinates": [ -9.536986, 29.648582 ] } },
{ "type": "Feature", "properties": { "name": "Tnine Aday ⵜⵏⵉⵏ ⵓ ⵡⴰⴷⴰⵢ اثنين أداي", "name:en": "Tnine Adayou", "place": "village", "population": null, "is_in": null, "source": null, "name:ar": "اثنين أداي", "name:ber": "ⵜⵏⵉⵏ ⵓ ⵡⴰⴷⴰⵢ", "osm_id": 2273227315, "osm_type": "nodes" }, "geometry": { "type": "Point", "coordinates": [ -9.27362, 29.703794 ] } },
{ "type": "Feature", "properties": { "name": "Tafraout El Mouloud ⵜⴰⴼⵔⴰⵡⵜ ⵏ ⵍⵎⵓⵍⵓⴷ تفراوت المولود", "name:en": "Tafraout El Mouloud", "place": "village", "population": null, "is_in": null, "source": null, "name:ar": "تفراوت المولود", "name:ber": "ⵜⴰⴼⵔⴰⵡⵜ ⵏ ⵍⵎⵓⵍⵓⴷ", "osm_id": 2273229123, "osm_type": "nodes" }, "geometry": { "type": "Point", "coordinates": [ -9.244717, 29.636628 ] } },
{ "type": "Feature", "properties": { "name": "Ijoukak", "name:en": null, "place": "village", "population": null, "is_in": null, "source": null, "name:ar": null, "name:ber": null, "osm_id": 2410724750, "osm_type": "nodes" }, "geometry": { "type": "Point", "coordinates": [ -8.1585674, 30.9993443 ] } },
{ "type": "Feature", "properties": { "name": "Ksar Achbarou", "name:en": null, "place": "village", "population": null, "is_in": null, "source": null, "name:ar": null, "name:ber": null, "osm_id": 2422233486, "osm_type": "nodes" }, "geometry": { "type": "Point", "coordinates": [ -5.0863985, 31.149704 ] } },
{ "type": "Feature", "properties": { "name": "Taourirt ⵜⴰⵡⵔⵉⵔⵜ تاوريرت", "name:en": "Taourirt", "place": "city", "population": null, "is_in": null, "source": null, "name:ar": "تاوريرت", "name:ber": "ⵜⴰⵡⵔⵉⵔⵜ", "osm_id": 2684455807, "osm_type": "nodes" }, "geometry": { "type": "Point", "coordinates": [ -2.893825, 34.413438 ] } },
{ "type": "Feature", "properties": { "name": "Blida ⴱⵍⵉⴷⴰ البليدة", "name:en": "Blida", "place": "village", "population": null, "is_in": null, "source": null, "name:ar": "البليدة", "name:ber": "ⴱⵍⵉⴷⴰ", "osm_id": 3080536534, "osm_type": "nodes" }, "geometry": { "type": "Point", "coordinates": [ -5.506939, 29.9834519 ] } },
{ "type": "Feature", "properties": { "name": "Cap des Trois Fourches رأس ثلاثة المذراة", "name:en": "Cape of the Three Forks", "place": "hamlet", "population": null, "is_in": null, "source": null, "name:ar": "رأس ثلاثة المذراة", "name:ber": null, "osm_id": 3130177245, "osm_type": "nodes" }, "geometry": { "type": "Point", "coordinates": [ -2.9753247, 35.423472 ] } },
{ "type": "Feature", "properties": { "name": "Rgabi Ait Hassou ⵔⴳⴰⴱⵉ ⴰⵢⵜ ⵃⵙⵙⵓ الركابي آيت حسو", "name:en": "Rgabi Ait Hassou", "place": "village", "population": null, "is_in": null, "source": null, "name:ar": "الركابي آيت حسو", "name:ber": "ⵔⴳⴰⴱⵉ ⴰⵢⵜ ⵃⵙⵙⵓ", "osm_id": 3658405572, "osm_type": "nodes" }, "geometry": { "type": "Point", "coordinates": [ -5.6324942, 29.83572 ] } },
{ "type": "Feature", "properties": { "name": "Merzouga ⵎⴰⵔⵣⵓⴳⴰ مرزوكة", "name:en": "Merzouga", "place": "town", "population": null, "is_in": null, "source": null, "name:ar": "مرزوكة", "name:ber": "ⵎⴰⵔⵣⵓⴳⴰ", "osm_id": 3901504169, "osm_type": "nodes" }, "geometry": { "type": "Point", "coordinates": [ -4.0140878, 31.0999166 ] } },
{ "type": "Feature", "properties": { "name": "Tamraght ⵜⴰⵎⵔⴰⵖⵜ تامراغت", "name:en": "Tamraght", "place": "village", "population": null, "is_in": null, "source": null, "name:ar": "تامراغت", "name:ber": "ⵜⴰⵎⵔⴰⵖⵜ", "osm_id": 3918593871, "osm_type": "nodes" }, "geometry": { "type": "Point", "coordinates": [ -9.677378, 30.513951 ] } },
{ "type": "Feature", "properties": { "name": "Jrawa ⵊⵔⴰⵡⴰ جروا", "name:en": "Jrawa", "place": "village", "population": null, "is_in": null, "source": null, "name:ar": "جروا", "name:ber": "ⵊⵔⴰⵡⴰ", "osm_id": 4141321030, "osm_type": "nodes" }, "geometry": { "type": "Point", "coordinates": [ -2.2117103, 34.9359317 ] } },
{ "type": "Feature", "properties": { "name": "Ksar Nasrate", "name:en": null, "place": "village", "population": null, "is_in": null, "source": null, "name:ar": null, "name:ber": null, "osm_id": 4336660456, "osm_type": "nodes" }, "geometry": { "type": "Point", "coordinates": [ -5.5302733, 30.0140698 ] } },
{ "type": "Feature", "properties": { "name": "Cazaza", "name:en": null, "place": "hamlet", "population": null, "is_in": null, "source": null, "name:ar": "غساسة", "name:ber": null, "osm_id": 5822249087, "osm_type": "nodes" }, "geometry": { "type": "Point", "coordinates": [ -3.087397, 35.2778667 ] } },
{ "type": "Feature", "properties": { "name": "Ksar Ait Khardi", "name:en": null, "place": "village", "population": null, "is_in": null, "source": null, "name:ar": null, "name:ber": null, "osm_id": 7266275015, "osm_type": "nodes" }, "geometry": { "type": "Point", "coordinates": [ -5.5143563, 30.0292197 ] } },
{ "type": "Feature", "properties": { "name": "Ksar Amamou", "name:en": null, "place": "hamlet", "population": null, "is_in": null, "source": null, "name:ar": null, "name:ber": null, "osm_id": 7266308246, "osm_type": "nodes" }, "geometry": { "type": "Point", "coordinates": [ -5.5141515, 30.0337322 ] } },
{ "type": "Feature", "properties": { "name": "Ksar Taqchourte", "name:en": null, "place": "village", "population": null, "is_in": null, "source": null, "name:ar": null, "name:ber": null, "osm_id": 7266316754, "osm_type": "nodes" }, "geometry": { "type": "Point", "coordinates": [ -5.5021982, 30.0565357 ] } },
{ "type": "Feature", "properties": { "name": "Ksar Ait Issa ou Brahim", "name:en": null, "place": "village", "population": null, "is_in": null, "source": null, "name:ar": null, "name:ber": null, "osm_id": 7266333819, "osm_type": "nodes" }, "geometry": { "type": "Point", "coordinates": [ -5.510763, 30.05229 ] } },
{ "type": "Feature", "properties": { "name": "Ksar Gorguir", "name:en": null, "place": "village", "population": null, "is_in": null, "source": null, "name:ar": null, "name:ber": null, "osm_id": 7266349490, "osm_type": "nodes" }, "geometry": { "type": "Point", "coordinates": [ -5.5142215, 29.9436631 ] } },
{ "type": "Feature", "properties": { "name": "Ksar Lkbir", "name:en": null, "place": "village", "population": null, "is_in": null, "source": null, "name:ar": null, "name:ber": null, "osm_id": 7266418809, "osm_type": "nodes" }, "geometry": { "type": "Point", "coordinates": [ -5.5096931, 29.9228138 ] } },
{ "type": "Feature", "properties": { "name": "Ksar Lghlad", "name:en": null, "place": "village", "population": null, "is_in": null, "source": null, "name:ar": null, "name:ber": null, "osm_id": 7266447401, "osm_type": "nodes" }, "geometry": { "type": "Point", "coordinates": [ -5.513338, 30.0343517 ] } },
{ "type": "Feature", "properties": { "name": "Ksar Taachate", "name:en": null, "place": "village", "population": null, "is_in": null, "source": null, "name:ar": null, "name:ber": null, "osm_id": 7266453420, "osm_type": "nodes" }, "geometry": { "type": "Point", "coordinates": [ -5.5069121, 30.0493812 ] } },
{ "type": "Feature", "properties": { "name": "Ksar Tajilalit", "name:en": null, "place": "village", "population": null, "is_in": null, "source": null, "name:ar": null, "name:ber": null, "osm_id": 7266567053, "osm_type": "nodes" }, "geometry": { "type": "Point", "coordinates": [ -4.7798142, 32.69875 ] } },
{ "type": "Feature", "properties": { "name": "Ksar Tissint", "name:en": null, "place": "village", "population": null, "is_in": null, "source": null, "name:ar": null, "name:ber": null, "osm_id": 7266634889, "osm_type": "nodes" }, "geometry": { "type": "Point", "coordinates": [ -7.3153146, 29.9015032 ] } },
{ "type": "Feature", "properties": { "name": "Ait Issafen ⴰⵢⵜ ⵉⵙⴰⴼⴻⵏ آيت إيسافن", "name:en": "Ait Issafen", "place": "village", "population": null, "is_in": null, "source": null, "name:ar": "آيت إيسافن", "name:ber": "ⴰⵢⵜ ⵉⵙⴰⴼⴻⵏ", "osm_id": 2274031656, "osm_type": "nodes" }, "geometry": { "type": "Point", "coordinates": [ -9.342264, 29.594843 ] } },
{ "type": "Feature", "properties": { "name": "Sidi Ahmed Ou Moussa ⵙⵉⴷⵉ ⵃⵎⴰⴷ ⵓⵎⵓⵙⴰ سيدي احمد أو موسى", "name:en": "Sidi Ahmed Ou Moussa", "place": "village", "population": null, "is_in": null, "source": null, "name:ar": "سيدي احمد أو موسى", "name:ber": "ⵙⵉⴷⵉ ⵃⵎⴰⴷ ⵓⵎⵓⵙⴰ", "osm_id": 2274045243, "osm_type": "nodes" }, "geometry": { "type": "Point", "coordinates": [ -9.455214, 29.503973 ] } },
{ "type": "Feature", "properties": { "name": "Douar Taganza(Imilmaiss)", "name:en": null, "place": "hamlet", "population": null, "is_in": null, "source": null, "name:ar": null, "name:ber": null, "osm_id": 2376794179, "osm_type": "nodes" }, "geometry": { "type": "Point", "coordinates": [ -8.8073197, 30.8753118 ] } },
{ "type": "Feature", "properties": { "name": "Massou", "name:en": null, "place": "village", "population": null, "is_in": null, "source": null, "name:ar": "ماسو", "name:ber": null, "osm_id": 4448308912, "osm_type": "nodes" }, "geometry": { "type": "Point", "coordinates": [ -4.985408, 32.40855 ] } },
{ "type": "Feature", "properties": { "name": "Asgherkiss", "name:en": null, "place": "hamlet", "population": null, "is_in": null, "source": null, "name:ar": null, "name:ber": null, "osm_id": 3074414429, "osm_type": "nodes" }, "geometry": { "type": "Point", "coordinates": [ -9.1397971, 29.989079 ] } },
{ "type": "Feature", "properties": { "name": "Alma", "name:en": null, "place": "village", "population": null, "is_in": null, "source": null, "name:ar": null, "name:ber": null, "osm_id": 2419358431, "osm_type": "nodes" }, "geometry": { "type": "Point", "coordinates": [ -8.7351451, 29.9227793 ] } },
{ "type": "Feature", "properties": { "name": null, "name:en": null, "place": "isolated_dwelling", "population": null, "is_in": null, "source": "bing", "name:ar": null, "name:ber": null, "osm_id": 4944846093, "osm_type": "nodes" }, "geometry": { "type": "Point", "coordinates": [ -6.085766, 30.9568227 ] } },
{ "type": "Feature", "properties": { "name": "Agadir Tassaout", "name:en": null, "place": "village", "population": null, "is_in": null, "source": null, "name:ar": null, "name:ber": null, "osm_id": 12250694240, "osm_type": "nodes" }, "geometry": { "type": "Point", "coordinates": [ -8.0229639, 31.3786693 ] } },
{ "type": "Feature", "properties": { "name": "Azib scom", "name:en": null, "place": "village", "population": null, "is_in": null, "source": null, "name:ar": null, "name:ber": null, "osm_id": 12250694247, "osm_type": "nodes" }, "geometry": { "type": "Point", "coordinates": [ -7.9873684, 31.3708051 ] } },
{ "type": "Feature", "properties": { "name": null, "name:en": null, "place": "village", "population": null, "is_in": null, "source": null, "name:ar": null, "name:ber": null, "osm_id": 4921042398, "osm_type": "nodes" }, "geometry": { "type": "Point", "coordinates": [ -6.1897016, 31.1971646 ] } },
{ "type": "Feature", "properties": { "name": "Douar Tamasoult", "name:en": null, "place": "village", "population": null, "is_in": null, "source": null, "name:ar": null, "name:ber": null, "osm_id": 12250857440, "osm_type": "nodes" }, "geometry": { "type": "Point", "coordinates": [ -7.767351, 31.4213018 ] } },
{ "type": "Feature", "properties": { "name": "Bou Ihangar", "name:en": null, "place": "isolated_dwelling", "population": null, "is_in": null, "source": null, "name:ar": null, "name:ber": null, "osm_id": 4897331765, "osm_type": "nodes" }, "geometry": { "type": "Point", "coordinates": [ -6.9497967, 31.3217657 ] } },
{ "type": "Feature", "properties": { "name": "Oumlougui", "name:en": null, "place": "isolated_dwelling", "population": null, "is_in": null, "source": null, "name:ar": null, "name:ber": null, "osm_id": 4897331772, "osm_type": "nodes" }, "geometry": { "type": "Point", "coordinates": [ -6.9422221, 31.3280162 ] } },
{ "type": "Feature", "properties": { "name": "Tizgui", "name:en": null, "place": "isolated_dwelling", "population": null, "is_in": null, "source": null, "name:ar": null, "name:ber": null, "osm_id": 4897270370, "osm_type": "nodes" }, "geometry": { "type": "Point", "coordinates": [ -6.9224167, 31.353685 ] } },
{ "type": "Feature", "properties": { "name": "Tifardine", "name:en": null, "place": "isolated_dwelling", "population": null, "is_in": null, "source": null, "name:ar": null, "name:ber": null, "osm_id": 4897270379, "osm_type": "nodes" }, "geometry": { "type": "Point", "coordinates": [ -6.9050735, 31.3547776 ] } },
{ "type": "Feature", "properties": { "name": "Tiwili", "name:en": null, "place": "village", "population": null, "is_in": null, "source": null, "name:ar": null, "name:ber": null, "osm_id": 12250694219, "osm_type": "nodes" }, "geometry": { "type": "Point", "coordinates": [ -8.0961472, 31.3954095 ] } },
{ "type": "Feature", "properties": { "name": null, "name:en": null, "place": "village", "population": null, "is_in": null, "source": null, "name:ar": null, "name:ber": null, "osm_id": 4921042399, "osm_type": "nodes" }, "geometry": { "type": "Point", "coordinates": [ -6.1995507, 31.2018633 ] } },
{ "type": "Feature", "properties": { "name": "Timichcha", "name:en": null, "place": "village", "population": null, "is_in": null, "source": null, "name:ar": null, "name:ber": null, "osm_id": 4921042401, "osm_type": "nodes" }, "geometry": { "type": "Point", "coordinates": [ -6.2051726, 31.1748794 ] } },
{ "type": "Feature", "properties": { "name": "Ait Gmat", "name:en": null, "place": "village", "population": null, "is_in": null, "source": null, "name:ar": null, "name:ber": null, "osm_id": 4921042404, "osm_type": "nodes" }, "geometry": { "type": "Point", "coordinates": [ -6.2148714, 31.1827734 ] } },
{ "type": "Feature", "properties": { "name": "Ait Issi", "name:en": null, "place": "village", "population": null, "is_in": null, "source": null, "name:ar": null, "name:ber": null, "osm_id": 4921042405, "osm_type": "nodes" }, "geometry": { "type": "Point", "coordinates": [ -6.1974263, 31.1784593 ] } },
{ "type": "Feature", "properties": { "name": "Chichaoua ⵛⵉⵛⴰⵡⴰ شيشاوة", "name:en": "Chichaoua", "place": "city", "population": "15657", "is_in": null, "source": null, "name:ar": "شيشاوة", "name:ber": "ⵛⵉⵛⴰⵡⴰ", "osm_id": 309968105, "osm_type": "nodes" }, "geometry": { "type": "Point", "coordinates": [ -8.7602644, 31.5463197 ] } },
{ "type": "Feature", "properties": { "name": "Ait Ali Ou Daoud", "name:en": null, "place": "village", "population": null, "is_in": null, "source": null, "name:ar": null, "name:ber": null, "osm_id": 10702179063, "osm_type": "nodes" }, "geometry": { "type": "Point", "coordinates": [ -5.6721374, 32.1339257 ] } },
{ "type": "Feature", "properties": { "name": "Ouled Driss ⵡⵍⴰⴷ ⴷⵔⵉⵙ أولاد إدريس", "name:en": "Ouled Driss", "place": "village", "population": null, "is_in": null, "source": null, "name:ar": "أولاد إدريس", "name:ber": "ⵡⵍⴰⴷ ⴷⵔⵉⵙ", "osm_id": 1028525951, "osm_type": "nodes" }, "geometry": { "type": "Point", "coordinates": [ -5.6547194, 29.8304092 ] } },
{ "type": "Feature", "properties": { "name": "Iboukhennane", "name:en": null, "place": "village", "population": null, "is_in": null, "source": null, "name:ar": null, "name:ber": null, "osm_id": 2652799384, "osm_type": "nodes" }, "geometry": { "type": "Point", "coordinates": [ -5.6440553, 32.1427317 ] } },
{ "type": "Feature", "properties": { "name": "Agalzi", "name:en": null, "place": "village", "population": null, "is_in": null, "source": null, "name:ar": null, "name:ber": null, "osm_id": 5647385655, "osm_type": "nodes" }, "geometry": { "type": "Point", "coordinates": [ -7.5735575, 30.5924078 ] } },
{ "type": "Feature", "properties": { "name": "Fatefraoute", "name:en": null, "place": "village", "population": null, "is_in": null, "source": null, "name:ar": null, "name:ber": null, "osm_id": 5647385656, "osm_type": "nodes" }, "geometry": { "type": "Point", "coordinates": [ -7.5773848, 30.5896918 ] } },
{ "type": "Feature", "properties": { "name": null, "name:en": null, "place": "village", "population": null, "is_in": null, "source": null, "name:ar": "بو خنان", "name:ber": null, "osm_id": 10702212672, "osm_type": "nodes" }, "geometry": { "type": "Point", "coordinates": [ -5.6438584, 32.1422159 ] } },
{ "type": "Feature", "properties": { "name": "Aghbalou n'Ait Ichou", "name:en": null, "place": "village", "population": null, "is_in": null, "source": null, "name:ar": null, "name:ber": null, "osm_id": 10693486696, "osm_type": "nodes" }, "geometry": { "type": "Point", "coordinates": [ -5.8200598, 32.3448176 ] } },
{ "type": "Feature", "properties": { "name": "Oulad Salah ⵡⵍⴰⴷ ⵚⴰⵍⵃ أولاد صالح", "name:en": "Oulad Salah", "place": "village", "population": null, "is_in": null, "source": null, "name:ar": "أولاد صالح", "name:ber": "ⵡⵍⴰⴷ ⵚⴰⵍⵃ", "osm_id": 1974483905, "osm_type": "nodes" }, "geometry": { "type": "Point", "coordinates": [ -7.6626175, 33.4115642 ] } },
{ "type": "Feature", "properties": { "name": "Ait Ouafqa", "name:en": null, "place": "village", "population": null, "is_in": null, "source": null, "name:ar": null, "name:ber": null, "osm_id": 2136321900, "osm_type": "nodes" }, "geometry": { "type": "Point", "coordinates": [ -9.0232314, 29.4489614 ] } },
{ "type": "Feature", "properties": { "name": "Ism Souq", "name:en": null, "place": "village", "population": null, "is_in": null, "source": null, "name:ar": null, "name:ber": null, "osm_id": 10673541120, "osm_type": "nodes" }, "geometry": { "type": "Point", "coordinates": [ -6.2220256, 31.7907133 ] } },
{ "type": "Feature", "properties": { "name": "El Gara ⵍⴳⴰⵕⴰ الكارة", "name:en": "El Gara", "place": "town", "population": null, "is_in": null, "source": null, "name:ar": "الكارة", "name:ber": "ⵍⴳⴰⵕⴰ", "osm_id": 1974455108, "osm_type": "nodes" }, "geometry": { "type": "Point", "coordinates": [ -7.2331554, 33.277113 ] } },
{ "type": "Feature", "properties": { "name": "Club Evasion", "name:en": null, "place": "hamlet", "population": null, "is_in": null, "source": null, "name:ar": null, "name:ber": null, "osm_id": 2494325577, "osm_type": "nodes" }, "geometry": { "type": "Point", "coordinates": [ -9.9460433, 29.7016871 ] } },
{ "type": "Feature", "properties": { "name": "Ait Hamed ⴰⵉⵜ ⵃⵎⴰⴷ ايت حماد", "name:en": "Ait Hmad", "place": "village", "population": null, "is_in": null, "source": null, "name:ar": "ايت حماد", "name:ber": "ⴰⵉⵜ ⵃⵎⴰⴷ", "osm_id": 3918356657, "osm_type": "nodes" }, "geometry": { "type": "Point", "coordinates": [ -9.5296976, 30.4615618 ] } },
{ "type": "Feature", "properties": { "name": null, "name:en": null, "place": "isolated_dwelling", "population": null, "is_in": null, "source": null, "name:ar": null, "name:ber": null, "osm_id": 10200997219, "osm_type": "nodes" }, "geometry": { "type": "Point", "coordinates": [ -4.8986217, 34.4002157 ] } },
{ "type": "Feature", "properties": { "name": null, "name:en": null, "place": "village", "population": null, "is_in": null, "source": null, "name:ar": null, "name:ber": null, "osm_id": 11364270711, "osm_type": "nodes" }, "geometry": { "type": "Point", "coordinates": [ -8.105701, 31.6951391 ] } },
{ "type": "Feature", "properties": { "name": null, "name:en": null, "place": "village", "population": null, "is_in": null, "source": null, "name:ar": null, "name:ber": null, "osm_id": 11364270712, "osm_type": "nodes" }, "geometry": { "type": "Point", "coordinates": [ -8.1050252, 31.6945555 ] } },
{ "type": "Feature", "properties": { "name": "Ksar Bjir قصر بجير", "name:en": "Ksar Bjir", "place": "village", "population": null, "is_in": null, "source": null, "name:ar": "قصر بجير", "name:ber": null, "osm_id": 1997764364, "osm_type": "nodes" }, "geometry": { "type": "Point", "coordinates": [ -5.8784981, 34.9759696 ] } },
{ "type": "Feature", "properties": { "name": "Ichbaken ⵜⴰⵍⴰⵜ ⵏ ⵜⴰⵣⴰⵔⵜ", "name:en": "Ichbaken", "place": "village", "population": null, "is_in": null, "source": null, "name:ar": null, "name:ber": "ⵜⴰⵍⴰⵜ ⵏ ⵜⴰⵣⴰⵔⵜ", "osm_id": 1483858466, "osm_type": "nodes" }, "geometry": { "type": "Point", "coordinates": [ -6.7014455, 31.436016 ] } },
{ "type": "Feature", "properties": { "name": null, "name:en": null, "place": "village", "population": null, "is_in": null, "source": null, "name:ar": null, "name:ber": null, "osm_id": 11364270695, "osm_type": "nodes" }, "geometry": { "type": "Point", "coordinates": [ -8.096937, 31.6845238 ] } },
{ "type": "Feature", "properties": { "name": "Baarite", "name:en": null, "place": "village", "population": null, "is_in": null, "source": null, "name:ar": null, "name:ber": null, "osm_id": 9984280191, "osm_type": "nodes" }, "geometry": { "type": "Point", "coordinates": [ -9.136642, 30.0363408 ] } },
{ "type": "Feature", "properties": { "name": "Eddalya ⴷⴰⵍⵢⴰ الدالية", "name:en": "Ad-Dalia", "place": "village", "population": null, "is_in": null, "source": null, "name:ar": "الدالية", "name:ber": "ⴷⴰⵍⵢⴰ", "osm_id": 4340515929, "osm_type": "nodes" }, "geometry": { "type": "Point", "coordinates": [ -5.4742856, 35.8987244 ] } },
{ "type": "Feature", "properties": { "name": "Atuifat أتوإفت", "name:en": "Atuifat", "place": "hamlet", "population": null, "is_in": null, "source": null, "name:ar": "أتوإفت", "name:ber": null, "osm_id": 7739884859, "osm_type": "nodes" }, "geometry": { "type": "Point", "coordinates": [ -16.866667, 21.35 ] } },
{ "type": "Feature", "properties": { "name": "Agouim ⴰⴳⵡⵉⵎ أگويم", "name:en": "Agouim", "place": "town", "population": null, "is_in": null, "source": null, "name:ar": "أگويم", "name:ber": "ⴰⴳⵡⵉⵎ", "osm_id": 1165448862, "osm_type": "nodes" }, "geometry": { "type": "Point", "coordinates": [ -7.4617715, 31.1563929 ] } },
{ "type": "Feature", "properties": { "name": null, "name:en": null, "place": "hamlet", "population": null, "is_in": null, "source": "Instituto Geográfico Nacional", "name:ar": null, "name:ber": null, "osm_id": 1242671197, "osm_type": "nodes" }, "geometry": { "type": "Point", "coordinates": [ -5.405168, 35.9131759 ] } },
{ "type": "Feature", "properties": { "name": null, "name:en": null, "place": "hamlet", "population": null, "is_in": null, "source": "Instituto Geográfico Nacional", "name:ar": null, "name:ber": null, "osm_id": 1242671247, "osm_type": "nodes" }, "geometry": { "type": "Point", "coordinates": [ -5.4295788, 35.9043838 ] } },
{ "type": "Feature", "properties": { "name": null, "name:en": null, "place": "hamlet", "population": null, "is_in": null, "source": "Instituto Geográfico Nacional", "name:ar": null, "name:ber": null, "osm_id": 1242671645, "osm_type": "nodes" }, "geometry": { "type": "Point", "coordinates": [ -2.9778385, 35.2578562 ] } },
{ "type": "Feature", "properties": { "name": null, "name:en": null, "place": "hamlet", "population": null, "is_in": null, "source": "Instituto Geográfico Nacional", "name:ar": null, "name:ber": null, "osm_id": 1242671652, "osm_type": "nodes" }, "geometry": { "type": "Point", "coordinates": [ -2.9778004, 35.2764308 ] } },
{ "type": "Feature", "properties": { "name": null, "name:en": null, "place": "hamlet", "population": null, "is_in": null, "source": "Instituto Geográfico Nacional", "name:ar": null, "name:ber": null, "osm_id": 1242671656, "osm_type": "nodes" }, "geometry": { "type": "Point", "coordinates": [ -2.9700885, 35.2580529 ] } },
{ "type": "Feature", "properties": { "name": null, "name:en": null, "place": "hamlet", "population": null, "is_in": null, "source": "Instituto Geográfico Nacional", "name:ar": null, "name:ber": null, "osm_id": 1242671663, "osm_type": "nodes" }, "geometry": { "type": "Point", "coordinates": [ -2.9643105, 35.2734881 ] } },
{ "type": "Feature", "properties": { "name": null, "name:en": null, "place": "hamlet", "population": null, "is_in": null, "source": "Instituto Geográfico Nacional", "name:ar": null, "name:ber": null, "osm_id": 1242671666, "osm_type": "nodes" }, "geometry": { "type": "Point", "coordinates": [ -2.9656166, 35.2528039 ] } },
{ "type": "Feature", "properties": { "name": null, "name:en": null, "place": "hamlet", "population": null, "is_in": null, "source": "Instituto Geográfico Nacional", "name:ar": null, "name:ber": null, "osm_id": 1242671689, "osm_type": "nodes" }, "geometry": { "type": "Point", "coordinates": [ -2.9683515, 35.258341 ] } },
{ "type": "Feature", "properties": { "name": null, "name:en": null, "place": "hamlet", "population": null, "is_in": null, "source": "Instituto Geográfico Nacional", "name:ar": null, "name:ber": null, "osm_id": 1242671711, "osm_type": "nodes" }, "geometry": { "type": "Point", "coordinates": [ -2.9988347, 35.2649905 ] } },
{ "type": "Feature", "properties": { "name": "Id Hamuad Ali ⵉⴷ ⵃⵎⴰⴷ ⵄⵍⵉ", "name:en": "Id Hamuad Ali", "place": "hamlet", "population": null, "is_in": null, "source": null, "name:ar": null, "name:ber": "ⵉⴷ ⵃⵎⴰⴷ ⵄⵍⵉ", "osm_id": 3137635363, "osm_type": "nodes" }, "geometry": { "type": "Point", "coordinates": [ -10.0100625, 29.3295891 ] } },
{ "type": "Feature", "properties": { "name": "Laqsabi Tagoust ⵍⵇⵚⴰⴱⵉ ⵜⴰⴳⵓⵙⵜ القصابي تاكوست", "name:en": "Laqsabi Tagoust", "place": "village", "population": null, "is_in": null, "source": null, "name:ar": "القصابي تاكوست", "name:ber": "ⵍⵇⵚⴰⴱⵉ ⵜⴰⴳⵓⵙⵜ", "osm_id": 2271838110, "osm_type": "nodes" }, "geometry": { "type": "Point", "coordinates": [ -10.1819661, 29.0049849 ] } },
{ "type": "Feature", "properties": { "name": "Lassarga ⵍⴰⵙⴰⵔⴳⴰ لاساركا", "name:en": "Lasarka", "place": "village", "population": null, "is_in": null, "source": null, "name:ar": "لاساركا", "name:ber": "ⵍⴰⵙⴰⵔⴳⴰ", "osm_id": 1829716252, "osm_type": "nodes" }, "geometry": { "type": "Point", "coordinates": [ -15.9905415, 23.6337423 ] } },
{ "type": "Feature", "properties": { "name": null, "name:en": null, "place": "hamlet", "population": null, "is_in": null, "source": "Instituto Geográfico Nacional", "name:ar": null, "name:ber": null, "osm_id": 1242671221, "osm_type": "nodes" }, "geometry": { "type": "Point", "coordinates": [ -5.415083, 35.8923357 ] } },
{ "type": "Feature", "properties": { "name": null, "name:en": null, "place": "hamlet", "population": null, "is_in": null, "source": "Instituto Geográfico Nacional", "name:ar": null, "name:ber": null, "osm_id": 1242671222, "osm_type": "nodes" }, "geometry": { "type": "Point", "coordinates": [ -5.421831, 35.8622114 ] } },
{ "type": "Feature", "properties": { "name": null, "name:en": null, "place": "hamlet", "population": null, "is_in": null, "source": "Instituto Geográfico Nacional", "name:ar": null, "name:ber": null, "osm_id": 1242671769, "osm_type": "nodes" }, "geometry": { "type": "Point", "coordinates": [ -2.9888963, 35.2644941 ] } },
{ "type": "Feature", "properties": { "name": "El Aïoun Sidi Mellouk ⵍⵄⵢⵓⵏ ⵙⵉⴷⵉ ⵎⵍⵍⵓⴽ العيون سيدي ملوك", "name:en": "El Aioun Sidi Mellouk", "place": "town", "population": "41832", "is_in": null, "source": null, "name:ar": "العيون سيدي ملوك", "name:ber": "ⵍⵄⵢⵓⵏ ⵙⵉⴷⵉ ⵎⵍⵍⵓⴽ", "osm_id": 1863759656, "osm_type": "nodes" }, "geometry": { "type": "Point", "coordinates": [ -2.502961, 34.578344 ] } },
{ "type": "Feature", "properties": { "name": "Talankramt ⵜⴰⵍⴰ ⵏ ⴽⵕⴰⵎⵜ تلنكرمت", "name:en": "Talankramt", "place": "hamlet", "population": null, "is_in": null, "source": null, "name:ar": "تلنكرمت", "name:ber": "ⵜⴰⵍⴰ ⵏ ⴽⵕⴰⵎⵜ", "osm_id": 3805599790, "osm_type": "nodes" }, "geometry": { "type": "Point", "coordinates": [ -5.2853188, 35.2621648 ] } },
{ "type": "Feature", "properties": { "name": "Tarhzout ⵜⴰⵖⵣⵓⵜ تاغزوت", "name:en": "Tarhzout", "place": "hamlet", "population": null, "is_in": null, "source": null, "name:ar": "تاغزوت", "name:ber": "ⵜⴰⵖⵣⵓⵜ", "osm_id": 3805599792, "osm_type": "nodes" }, "geometry": { "type": "Point", "coordinates": [ -5.2369011, 35.2643006 ] } },
{ "type": "Feature", "properties": { "name": "Al Kharroub ⵍⵅⵕⵕⵓⴱ الخروب", "name:en": "Al Kharroub", "place": "village", "population": null, "is_in": null, "source": null, "name:ar": "ااخروب", "name:ber": "ⵍⵅⵕⵕⵓⴱ", "osm_id": 1973322649, "osm_type": "nodes" }, "geometry": { "type": "Point", "coordinates": [ -5.7277173, 35.396537 ] } },
{ "type": "Feature", "properties": { "name": "Si Abdellah", "name:en": null, "place": "village", "population": null, "is_in": null, "source": null, "name:ar": null, "name:ber": null, "osm_id": 2543074053, "osm_type": "nodes" }, "geometry": { "type": "Point", "coordinates": [ -9.985087, 29.5336636 ] } },
{ "type": "Feature", "properties": { "name": "Tisfatine ⵜⵉⵙⴼⴰⵜⵉⵏ", "name:en": "Tisfatine", "place": "hamlet", "population": null, "is_in": null, "source": null, "name:ar": null, "name:ber": "ⵜⵉⵙⴼⴰⵜⵉⵏ", "osm_id": 2215712304, "osm_type": "nodes" }, "geometry": { "type": "Point", "coordinates": [ -9.9893956, 29.3715995 ] } },
{ "type": "Feature", "properties": { "name": "Bu Afernun ⴱⵓ ⴰⴼⵔⵏⵓⵏ", "name:en": "Bu Afernun", "place": "hamlet", "population": null, "is_in": null, "source": null, "name:ar": null, "name:ber": "ⴱⵓ ⴰⴼⵔⵏⵓⵏ", "osm_id": 2241289877, "osm_type": "nodes" }, "geometry": { "type": "Point", "coordinates": [ -9.979467, 29.3806 ] } },
{ "type": "Feature", "properties": { "name": "Id Nasar", "name:en": null, "place": "hamlet", "population": null, "is_in": null, "source": null, "name:ar": null, "name:ber": null, "osm_id": 2241490302, "osm_type": "nodes" }, "geometry": { "type": "Point", "coordinates": [ -9.9432464, 29.343553 ] } },
{ "type": "Feature", "properties": { "name": "Aït Bouhous ⴰⵢⵜ ⴱⵓⵀⵓⵙ", "name:en": "Aït Bouhous", "place": "hamlet", "population": null, "is_in": null, "source": null, "name:ar": null, "name:ber": "ⴰⵢⵜ ⴱⵓⵀⵓⵙ", "osm_id": 2287936309, "osm_type": "nodes" }, "geometry": { "type": "Point", "coordinates": [ -10.0446732, 29.3670026 ] } },
{ "type": "Feature", "properties": { "name": "Allaled Ou Souk ⴰⵍⵍⴰⵍⴷ ⵓ ⵙⵓⵇ", "name:en": "Allaled Ou Souk", "place": "hamlet", "population": null, "is_in": null, "source": null, "name:ar": null, "name:ber": "ⴰⵍⵍⴰⵍⴷ ⵓ ⵙⵓⵇ", "osm_id": 3137416287, "osm_type": "nodes" }, "geometry": { "type": "Point", "coordinates": [ -10.0873883, 29.3575866 ] } },
{ "type": "Feature", "properties": { "name": "Bni Sidel Louta ⴱⵏⵉ ⵙⵉⴷⴰⵍ ⵍⵓⵟⴰ بني سيدال لوطا", "name:en": "Bni Sidel Louta", "place": "village", "population": null, "is_in": null, "source": null, "name:ar": "بني سيدال لوطا", "name:ber": "ⴱⵏⵉ ⵙⵉⴷⴰⵍ ⵍⵓⵟⴰ", "osm_id": 1938288528, "osm_type": "nodes" }, "geometry": { "type": "Point", "coordinates": [ -3.0655619, 35.1068694 ] } },
{ "type": "Feature", "properties": { "name": "Echdis ⴰⵛⴷⵉⵙ", "name:en": "Echdis", "place": "hamlet", "population": null, "is_in": null, "source": null, "name:ar": null, "name:ber": "ⴰⵛⴷⵉⵙ", "osm_id": 2417807279, "osm_type": "nodes" }, "geometry": { "type": "Point", "coordinates": [ -10.1058599, 29.3369618 ] } },
{ "type": "Feature", "properties": { "name": "Aït Abdallah Ou Messaoud ⴰⵢⵜ ⵄⴰⴱⴷⵓⵍⵍⴰⵀ ⵓ ⵎⵙⵄⵓⴷ", "name:en": "Aït Abdallah Ou Messaoud", "place": "village", "population": null, "is_in": null, "source": null, "name:ar": null, "name:ber": "ⴰⵢⵜ ⵄⴰⴱⴷⵓⵍⵍⴰⵀ ⵓ ⵎⵙⵄⵓⴷ", "osm_id": 2417807499, "osm_type": "nodes" }, "geometry": { "type": "Point", "coordinates": [ -10.093511, 29.3304894 ] } },
{ "type": "Feature", "properties": { "name": "Bouiseri ⴱⵓⵢⵙⵔⵉ", "name:en": "Bouiseri", "place": "hamlet", "population": null, "is_in": null, "source": null, "name:ar": null, "name:ber": "ⴱⵓⵢⵙⵔⵉ", "osm_id": 2417810067, "osm_type": "nodes" }, "geometry": { "type": "Point", "coordinates": [ -10.104036, 29.3450424 ] } },
{ "type": "Feature", "properties": { "name": "Imcham ⵉⵎⵛⴰⵎ", "name:en": "Imcham", "place": "hamlet", "population": null, "is_in": null, "source": null, "name:ar": null, "name:ber": "ⵉⵎⵛⴰⵎ", "osm_id": 3137416285, "osm_type": "nodes" }, "geometry": { "type": "Point", "coordinates": [ -10.0212343, 29.3670867 ] } },
{ "type": "Feature", "properties": { "name": "Amentak", "name:en": null, "place": "hamlet", "population": null, "is_in": null, "source": null, "name:ar": null, "name:ber": null, "osm_id": 4010230489, "osm_type": "nodes" }, "geometry": { "type": "Point", "coordinates": [ -5.0332147, 35.3547592 ] } },
{ "type": "Feature", "properties": { "name": "Taria", "name:en": null, "place": "hamlet", "population": null, "is_in": null, "source": null, "name:ar": null, "name:ber": null, "osm_id": 3968677828, "osm_type": "nodes" }, "geometry": { "type": "Point", "coordinates": [ -5.1636272, 35.1690631 ] } },
{ "type": "Feature", "properties": { "name": "Akane", "name:en": null, "place": "hamlet", "population": null, "is_in": null, "source": null, "name:ar": null, "name:ber": null, "osm_id": 4009264924, "osm_type": "nodes" }, "geometry": { "type": "Point", "coordinates": [ -5.1471974, 35.2694075 ] } },
{ "type": "Feature", "properties": { "name": "Tifiraouine", "name:en": null, "place": "hamlet", "population": null, "is_in": null, "source": null, "name:ar": null, "name:ber": null, "osm_id": 4009278446, "osm_type": "nodes" }, "geometry": { "type": "Point", "coordinates": [ -5.2002927, 35.286305 ] } },
{ "type": "Feature", "properties": { "name": "Idrène ⵉⴷⵔⵏ إيدرين", "name:en": "Idrene", "place": "hamlet", "population": null, "is_in": null, "source": null, "name:ar": "إيدرين", "name:ber": "ⵉⴷⵔⵏ", "osm_id": 4018144489, "osm_type": "nodes" }, "geometry": { "type": "Point", "coordinates": [ -5.2091136, 35.4173775 ] } },
{ "type": "Feature", "properties": { "name": "Ihettachène ⵉⵃⵜⵜⴰⵛⵏ إحتاشن", "name:en": "Ihettachene", "place": "hamlet", "population": null, "is_in": null, "source": null, "name:ar": "إحتاشن", "name:ber": "ⵉⵃⵜⵜⴰⵛⵏ", "osm_id": 4019435040, "osm_type": "nodes" }, "geometry": { "type": "Point", "coordinates": [ -5.1805556, 35.4305556 ] } },
{ "type": "Feature", "properties": { "name": "Douar bouwalid", "name:en": null, "place": "village", "population": null, "is_in": null, "source": null, "name:ar": null, "name:ber": null, "osm_id": 10185572124, "osm_type": "nodes" }, "geometry": { "type": "Point", "coordinates": [ -4.8441103, 34.5858138 ] } },
{ "type": "Feature", "properties": { "name": "دوار المستوي douar elmastoui", "name:en": null, "place": "village", "population": null, "is_in": null, "source": null, "name:ar": null, "name:ber": null, "osm_id": 10302958021, "osm_type": "nodes" }, "geometry": { "type": "Point", "coordinates": [ -4.8742844, 34.58591 ] } },
{ "type": "Feature", "properties": { "name": "دوار اوكاسات", "name:en": null, "place": "village", "population": null, "is_in": null, "source": null, "name:ar": null, "name:ber": null, "osm_id": 10303008317, "osm_type": "nodes" }, "geometry": { "type": "Point", "coordinates": [ -4.906205, 34.5950145 ] } },
{ "type": "Feature", "properties": { "name": "زاوية مولاي عبد الرحمن zaoueyat moulay abderrhman", "name:en": null, "place": "hamlet", "population": null, "is_in": null, "source": null, "name:ar": null, "name:ber": null, "osm_id": 10303033172, "osm_type": "nodes" }, "geometry": { "type": "Point", "coordinates": [ -4.8847234, 34.5439532 ] } },
{ "type": "Feature", "properties": { "name": "دوار تيزيغان", "name:en": null, "place": "village", "population": null, "is_in": null, "source": null, "name:ar": null, "name:ber": null, "osm_id": 10302975880, "osm_type": "nodes" }, "geometry": { "type": "Point", "coordinates": [ -4.8518967, 34.5704672 ] } },
{ "type": "Feature", "properties": { "name": "الحداقة  غمارة", "name:en": null, "place": "village", "population": null, "is_in": null, "source": null, "name:ar": null, "name:ber": null, "osm_id": 10301329761, "osm_type": "nodes" }, "geometry": { "type": "Point", "coordinates": [ -4.8461153, 34.8622538 ] } },
{ "type": "Feature", "properties": { "name": "Bou Sedra", "name:en": null, "place": "village", "population": null, "is_in": null, "source": null, "name:ar": null, "name:ber": null, "osm_id": 3651107059, "osm_type": "nodes" }, "geometry": { "type": "Point", "coordinates": [ -8.16257, 33.2001287 ] } },
{ "type": "Feature", "properties": { "name": "Imi N Ikis", "name:en": null, "place": "village", "population": null, "is_in": null, "source": null, "name:ar": null, "name:ber": null, "osm_id": 3332104774, "osm_type": "nodes" }, "geometry": { "type": "Point", "coordinates": [ -6.6737329, 31.4353459 ] } },
{ "type": "Feature", "properties": { "name": "Taghroute", "name:en": null, "place": "village", "population": null, "is_in": null, "source": null, "name:ar": null, "name:ber": null, "osm_id": 2951298534, "osm_type": "nodes" }, "geometry": { "type": "Point", "coordinates": [ -6.8850985, 31.419669 ] } },
{ "type": "Feature", "properties": { "name": "Assoul", "name:en": null, "place": "village", "population": null, "is_in": null, "source": null, "name:ar": null, "name:ber": null, "osm_id": 12258036037, "osm_type": "nodes" }, "geometry": { "type": "Point", "coordinates": [ -5.5298926, 32.9274637 ] } },
{ "type": "Feature", "properties": { "name": "Askrem", "name:en": null, "place": "village", "population": null, "is_in": null, "source": null, "name:ar": null, "name:ber": null, "osm_id": 2951294357, "osm_type": "nodes" }, "geometry": { "type": "Point", "coordinates": [ -6.8279996, 31.5306068 ] } },
{ "type": "Feature", "properties": { "name": "Tazakht", "name:en": null, "place": "village", "population": null, "is_in": null, "source": null, "name:ar": null, "name:ber": null, "osm_id": 2951293045, "osm_type": "nodes" }, "geometry": { "type": "Point", "coordinates": [ -6.8154898, 31.5163032 ] } },
{ "type": "Feature", "properties": { "name": "Asammar", "name:en": null, "place": "village", "population": null, "is_in": null, "source": null, "name:ar": null, "name:ber": null, "osm_id": 5935155014, "osm_type": "nodes" }, "geometry": { "type": "Point", "coordinates": [ -6.8354179, 31.5147885 ] } },
{ "type": "Feature", "properties": { "name": "Tizi N´Ouaoual", "name:en": null, "place": "village", "population": null, "is_in": null, "source": null, "name:ar": null, "name:ber": null, "osm_id": 2951294788, "osm_type": "nodes" }, "geometry": { "type": "Point", "coordinates": [ -6.8348232, 31.5309726 ] } },
{ "type": "Feature", "properties": { "name": "Imi Niguen Ait Haddou", "name:en": null, "place": "village", "population": null, "is_in": null, "source": null, "name:ar": null, "name:ber": null, "osm_id": 2951294624, "osm_type": "nodes" }, "geometry": { "type": "Point", "coordinates": [ -6.8279138, 31.5204006 ] } },
{ "type": "Feature", "properties": { "name": "Inighdane", "name:en": null, "place": "village", "population": null, "is_in": null, "source": null, "name:ar": null, "name:ber": null, "osm_id": 2951294690, "osm_type": "nodes" }, "geometry": { "type": "Point", "coordinates": [ -6.8000832, 31.5113275 ] } },
{ "type": "Feature", "properties": { "name": "Imazayne", "name:en": null, "place": "village", "population": null, "is_in": null, "source": null, "name:ar": null, "name:ber": null, "osm_id": 2951294711, "osm_type": "nodes" }, "geometry": { "type": "Point", "coordinates": [ -6.8144169, 31.5217725 ] } },
{ "type": "Feature", "properties": { "name": "Igli", "name:en": null, "place": "village", "population": null, "is_in": null, "source": null, "name:ar": null, "name:ber": null, "osm_id": 2951294806, "osm_type": "nodes" }, "geometry": { "type": "Point", "coordinates": [ -6.8846264, 31.5138703 ] } },
{ "type": "Feature", "properties": { "name": "Izghane", "name:en": null, "place": "village", "population": null, "is_in": null, "source": null, "name:ar": null, "name:ber": null, "osm_id": 2951294387, "osm_type": "nodes" }, "geometry": { "type": "Point", "coordinates": [ -6.8938532, 31.5105043 ] } },
{ "type": "Feature", "properties": { "name": "n'Ait Larif ⵏⴰⵢⵜ ⵍⵄⵔⵉⴼ", "name:en": "n'Ait Larif", "place": "hamlet", "population": null, "is_in": null, "source": null, "name:ar": null, "name:ber": "ⵏⴰⵢⵜ ⵍⵄⵔⵉⴼ", "osm_id": 512113738, "osm_type": "nodes" }, "geometry": { "type": "Point", "coordinates": [ -6.573363, 31.6168539 ] } },
{ "type": "Feature", "properties": { "name": null, "name:en": null, "place": "hamlet", "population": null, "is_in": null, "source": null, "name:ar": null, "name:ber": null, "osm_id": 2900367959, "osm_type": "nodes" }, "geometry": { "type": "Point", "coordinates": [ -6.5597637, 31.6220359 ] } },
{ "type": "Feature", "properties": { "name": null, "name:en": null, "place": "village", "population": null, "is_in": null, "source": null, "name:ar": null, "name:ber": null, "osm_id": 2706049196, "osm_type": "nodes" }, "geometry": { "type": "Point", "coordinates": [ -6.5618812, 31.6244039 ] } },
{ "type": "Feature", "properties": { "name": null, "name:en": null, "place": "hamlet", "population": null, "is_in": null, "source": null, "name:ar": null, "name:ber": null, "osm_id": 2706048670, "osm_type": "nodes" }, "geometry": { "type": "Point", "coordinates": [ -6.5897547, 31.59925 ] } },
{ "type": "Feature", "properties": { "name": "Imi n Isk ⵉⵎⵉ ⵏ ⵉⵙⴽ", "name:en": "Imi n Isk", "place": "village", "population": null, "is_in": null, "source": null, "name:ar": null, "name:ber": "ⵉⵎⵉ ⵏ ⵉⵙⴽ", "osm_id": 2145202723, "osm_type": "nodes" }, "geometry": { "type": "Point", "coordinates": [ -6.6423562, 31.5388455 ] } },
{ "type": "Feature", "properties": { "name": "Tiziatine ⵜⵉⵣⵢⴰⵜⵉⵏ", "name:en": "Tiziatine", "place": "village", "population": null, "is_in": null, "source": null, "name:ar": null, "name:ber": "ⵜⵉⵣⵢⴰⵜⵉⵏ", "osm_id": 506811674, "osm_type": "nodes" }, "geometry": { "type": "Point", "coordinates": [ -6.6000373, 31.5547314 ] } },
{ "type": "Feature", "properties": { "name": "Imi n Dug ni ⵉⵎⵉ ⵏ ⴷⵓⴳⵏⵉ", "name:en": "Imi n Dug ni", "place": "village", "population": null, "is_in": null, "source": null, "name:ar": null, "name:ber": "ⵉⵎⵉ ⵏ ⴷⵓⴳⵏⵉ", "osm_id": 2145193653, "osm_type": "nodes" }, "geometry": { "type": "Point", "coordinates": [ -6.6175571, 31.5613047 ] } },
{ "type": "Feature", "properties": { "name": "Tazit", "name:en": null, "place": "hamlet", "population": null, "is_in": null, "source": null, "name:ar": null, "name:ber": null, "osm_id": 2900368138, "osm_type": "nodes" }, "geometry": { "type": "Point", "coordinates": [ -6.5756102, 31.5668663 ] } },
{ "type": "Feature", "properties": { "name": null, "name:en": null, "place": "hamlet", "population": null, "is_in": null, "source": null, "name:ar": null, "name:ber": null, "osm_id": 2706049005, "osm_type": "nodes" }, "geometry": { "type": "Point", "coordinates": [ -6.5920721, 31.6047145 ] } },
{ "type": "Feature", "properties": { "name": null, "name:en": null, "place": "village", "population": null, "is_in": null, "source": null, "name:ar": null, "name:ber": null, "osm_id": 2982179034, "osm_type": "nodes" }, "geometry": { "type": "Point", "coordinates": [ -6.6091571, 31.597748 ] } },
{ "type": "Feature", "properties": { "name": null, "name:en": null, "place": "village", "population": null, "is_in": null, "source": null, "name:ar": null, "name:ber": null, "osm_id": 2704877387, "osm_type": "nodes" }, "geometry": { "type": "Point", "coordinates": [ -6.6181406, 31.3584009 ] } },
{ "type": "Feature", "properties": { "name": "Taselnant", "name:en": null, "place": "village", "population": null, "is_in": null, "source": null, "name:ar": null, "name:ber": null, "osm_id": 4513899966, "osm_type": "nodes" }, "geometry": { "type": "Point", "coordinates": [ -6.4718303, 31.6448751 ] } },
{ "type": "Feature", "properties": { "name": "Ighir ⵉⵖⵉⵔ", "name:en": "Ighir el Mizeb", "place": "village", "population": null, "is_in": null, "source": null, "name:ar": null, "name:ber": "ⵉⵖⵉⵔ", "osm_id": 2882304686, "osm_type": "nodes" }, "geometry": { "type": "Point", "coordinates": [ -6.5415322, 31.6941371 ] } },
{ "type": "Feature", "properties": { "name": "Klabo ⴽⵍⴰⴱⵓ", "name:en": "Klabo", "place": "village", "population": null, "is_in": null, "source": null, "name:ar": null, "name:ber": "ⴽⵍⴰⴱⵓ", "osm_id": 431222242, "osm_type": "nodes" }, "geometry": { "type": "Point", "coordinates": [ -6.5448899, 31.6970502 ] } },
{ "type": "Feature", "properties": { "name": "Ait Abbas ⴰⵢⵜ ⵄⴱⴱⴰⵙ آيت عباس", "name:en": "Ait Abbas", "place": "village", "population": null, "is_in": null, "source": null, "name:ar": "آيت عباس", "name:ber": "ⴰⵢⵜ ⵄⴱⴱⴰⵙ", "osm_id": 2272848084, "osm_type": "nodes" }, "geometry": { "type": "Point", "coordinates": [ -6.5461765, 31.6981049 ] } },
{ "type": "Feature", "properties": { "name": null, "name:en": null, "place": "hamlet", "population": null, "is_in": null, "source": null, "name:ar": null, "name:ber": null, "osm_id": 2960406165, "osm_type": "nodes" }, "geometry": { "type": "Point", "coordinates": [ -6.4756995, 31.7403729 ] } },
{ "type": "Feature", "properties": { "name": null, "name:en": null, "place": "hamlet", "population": null, "is_in": null, "source": null, "name:ar": null, "name:ber": null, "osm_id": 2960406176, "osm_type": "nodes" }, "geometry": { "type": "Point", "coordinates": [ -6.593191, 31.7044165 ] } },
{ "type": "Feature", "properties": { "name": null, "name:en": null, "place": "hamlet", "population": null, "is_in": null, "source": null, "name:ar": null, "name:ber": null, "osm_id": 2882251271, "osm_type": "nodes" }, "geometry": { "type": "Point", "coordinates": [ -6.45303, 31.7317127 ] } },
{ "type": "Feature", "properties": { "name": null, "name:en": null, "place": "hamlet", "population": null, "is_in": null, "source": null, "name:ar": null, "name:ber": null, "osm_id": 2882303620, "osm_type": "nodes" }, "geometry": { "type": "Point", "coordinates": [ -6.4463138, 31.7311834 ] } },
{ "type": "Feature", "properties": { "name": null, "name:en": null, "place": "hamlet", "population": null, "is_in": null, "source": null, "name:ar": null, "name:ber": null, "osm_id": 2882303830, "osm_type": "nodes" }, "geometry": { "type": "Point", "coordinates": [ -6.4308535, 31.7414852 ] } },
{ "type": "Feature", "properties": { "name": null, "name:en": null, "place": "hamlet", "population": null, "is_in": null, "source": null, "name:ar": null, "name:ber": null, "osm_id": 2882304162, "osm_type": "nodes" }, "geometry": { "type": "Point", "coordinates": [ -6.4379989, 31.7323788 ] } },
{ "type": "Feature", "properties": { "name": null, "name:en": null, "place": "hamlet", "population": null, "is_in": null, "source": null, "name:ar": null, "name:ber": null, "osm_id": 2882305212, "osm_type": "nodes" }, "geometry": { "type": "Point", "coordinates": [ -6.4466034, 31.7347696 ] } },
{ "type": "Feature", "properties": { "name": "Tabalout ⵜⴰⴱⴰⵍⵓⵜ", "name:en": "Tabalout", "place": "village", "population": null, "is_in": null, "source": null, "name:ar": null, "name:ber": "ⵜⴰⴱⴰⵍⵓⵜ", "osm_id": 433348715, "osm_type": "nodes" }, "geometry": { "type": "Point", "coordinates": [ -6.9064528, 31.7277957 ] } },
{ "type": "Feature", "properties": { "name": null, "name:en": null, "place": "village", "population": null, "is_in": null, "source": null, "name:ar": null, "name:ber": null, "osm_id": 2900288769, "osm_type": "nodes" }, "geometry": { "type": "Point", "coordinates": [ -6.3852914, 31.3177364 ] } },
{ "type": "Feature", "properties": { "name": null, "name:en": null, "place": "hamlet", "population": null, "is_in": null, "source": null, "name:ar": null, "name:ber": null, "osm_id": 4077757804, "osm_type": "nodes" }, "geometry": { "type": "Point", "coordinates": [ -6.3515376, 31.4682706 ] } },
{ "type": "Feature", "properties": { "name": null, "name:en": null, "place": "village", "population": null, "is_in": null, "source": null, "name:ar": null, "name:ber": null, "osm_id": 4085211008, "osm_type": "nodes" }, "geometry": { "type": "Point", "coordinates": [ -6.8115107, 31.8462296 ] } },
{ "type": "Feature", "properties": { "name": null, "name:en": null, "place": "village", "population": null, "is_in": null, "source": null, "name:ar": null, "name:ber": null, "osm_id": 4085211009, "osm_type": "nodes" }, "geometry": { "type": "Point", "coordinates": [ -6.8279258, 31.8401596 ] } },
{ "type": "Feature", "properties": { "name": null, "name:en": null, "place": "hamlet", "population": null, "is_in": null, "source": null, "name:ar": null, "name:ber": null, "osm_id": 2982273462, "osm_type": "nodes" }, "geometry": { "type": "Point", "coordinates": [ -6.8438629, 31.7480618 ] } },
{ "type": "Feature", "properties": { "name": null, "name:en": null, "place": "hamlet", "population": null, "is_in": null, "source": null, "name:ar": null, "name:ber": null, "osm_id": 2982244632, "osm_type": "nodes" }, "geometry": { "type": "Point", "coordinates": [ -6.7999659, 31.7733943 ] } },
{ "type": "Feature", "properties": { "name": "Asslim ⴰⵙⵍⵉⵎ", "name:en": "Asslim", "place": "village", "population": "500", "is_in": null, "source": null, "name:ar": null, "name:ber": "ⴰⵙⵍⵉⵎ", "osm_id": 1762592854, "osm_type": "nodes" }, "geometry": { "type": "Point", "coordinates": [ -6.4467474, 30.7133342 ] } },
{ "type": "Feature", "properties": { "name": "Agdz ⴰⴳⴷⵣ أكدز", "name:en": "Agdz", "place": "town", "population": "10000", "is_in": null, "source": null, "name:ar": "أكدز", "name:ber": "ⴰⴳⴷⵣ", "osm_id": 1035638774, "osm_type": "nodes" }, "geometry": { "type": "Point", "coordinates": [ -6.4489453, 30.6943155 ] } },
{ "type": "Feature", "properties": { "name": "Timiright", "name:en": null, "place": "hamlet", "population": null, "is_in": null, "source": null, "name:ar": null, "name:ber": null, "osm_id": 4862590688, "osm_type": "nodes" }, "geometry": { "type": "Point", "coordinates": [ -6.3444737, 31.1215827 ] } },
{ "type": "Feature", "properties": { "name": null, "name:en": null, "place": "village", "population": null, "is_in": null, "source": null, "name:ar": null, "name:ber": null, "osm_id": 2889646680, "osm_type": "nodes" }, "geometry": { "type": "Point", "coordinates": [ -6.3600105, 31.0428692 ] } },
{ "type": "Feature", "properties": { "name": "Tasla ⵜⴰⵙⵍⴰ", "name:en": "Tasla", "place": "village", "population": null, "is_in": null, "source": null, "name:ar": null, "name:ber": "ⵜⴰⵙⵍⴰ", "osm_id": 2422169215, "osm_type": "nodes" }, "geometry": { "type": "Point", "coordinates": [ -6.7576224, 30.5674797 ] } },
{ "type": "Feature", "properties": { "name": null, "name:en": null, "place": "village", "population": null, "is_in": null, "source": null, "name:ar": null, "name:ber": null, "osm_id": 5399636957, "osm_type": "nodes" }, "geometry": { "type": "Point", "coordinates": [ -6.5667209, 30.6181161 ] } },
{ "type": "Feature", "properties": { "name": "El Hara", "name:en": null, "place": "hamlet", "population": null, "is_in": null, "source": null, "name:ar": null, "name:ber": null, "osm_id": 4612455181, "osm_type": "nodes" }, "geometry": { "type": "Point", "coordinates": [ -6.430452, 30.6917286 ] } },
{ "type": "Feature", "properties": { "name": null, "name:en": null, "place": "village", "population": null, "is_in": null, "source": null, "name:ar": null, "name:ber": null, "osm_id": 2693486096, "osm_type": "nodes" }, "geometry": { "type": "Point", "coordinates": [ -6.5246845, 31.2604452 ] } },
{ "type": "Feature", "properties": { "name": null, "name:en": null, "place": "hamlet", "population": null, "is_in": null, "source": null, "name:ar": null, "name:ber": null, "osm_id": 2917722440, "osm_type": "nodes" }, "geometry": { "type": "Point", "coordinates": [ -6.5620489, 31.3313208 ] } },
{ "type": "Feature", "properties": { "name": null, "name:en": null, "place": "hamlet", "population": null, "is_in": null, "source": null, "name:ar": null, "name:ber": null, "osm_id": 2917723229, "osm_type": "nodes" }, "geometry": { "type": "Point", "coordinates": [ -6.5657182, 31.3301478 ] } },
{ "type": "Feature", "properties": { "name": "Aguerd أكرض", "name:en": "Aguerd", "place": "village", "population": "376", "is_in": null, "source": null, "name:ar": "أكرض", "name:ber": null, "osm_id": 2693483626, "osm_type": "nodes" }, "geometry": { "type": "Point", "coordinates": [ -6.5088809, 31.3121199 ] } },
{ "type": "Feature", "properties": { "name": null, "name:en": null, "place": "hamlet", "population": null, "is_in": null, "source": null, "name:ar": null, "name:ber": null, "osm_id": 2962600602, "osm_type": "nodes" }, "geometry": { "type": "Point", "coordinates": [ -6.5011723, 31.3006227 ] } },
{ "type": "Feature", "properties": { "name": null, "name:en": null, "place": "hamlet", "population": null, "is_in": null, "source": null, "name:ar": null, "name:ber": null, "osm_id": 2962600473, "osm_type": "nodes" }, "geometry": { "type": "Point", "coordinates": [ -6.5005554, 31.2973729 ] } },
{ "type": "Feature", "properties": { "name": null, "name:en": null, "place": "hamlet", "population": null, "is_in": null, "source": null, "name:ar": null, "name:ber": null, "osm_id": 2693483745, "osm_type": "nodes" }, "geometry": { "type": "Point", "coordinates": [ -6.5000082, 31.3112033 ] } },
{ "type": "Feature", "properties": { "name": null, "name:en": null, "place": "hamlet", "population": null, "is_in": null, "source": null, "name:ar": null, "name:ber": null, "osm_id": 2693484088, "osm_type": "nodes" }, "geometry": { "type": "Point", "coordinates": [ -6.4958025, 31.3340062 ] } },
{ "type": "Feature", "properties": { "name": null, "name:en": null, "place": "village", "population": null, "is_in": null, "source": null, "name:ar": null, "name:ber": null, "osm_id": 2936001664, "osm_type": "nodes" }, "geometry": { "type": "Point", "coordinates": [ -6.6949653, 31.233568 ] } },
{ "type": "Feature", "properties": { "name": null, "name:en": null, "place": "hamlet", "population": null, "is_in": null, "source": null, "name:ar": null, "name:ber": null, "osm_id": 2936002124, "osm_type": "nodes" }, "geometry": { "type": "Point", "coordinates": [ -6.6943001, 31.2412003 ] } },
{ "type": "Feature", "properties": { "name": null, "name:en": null, "place": "hamlet", "population": null, "is_in": null, "source": null, "name:ar": null, "name:ber": null, "osm_id": 2697430852, "osm_type": "nodes" }, "geometry": { "type": "Point", "coordinates": [ -6.6750583, 31.5276725 ] } },
{ "type": "Feature", "properties": { "name": "Iskad ⵉⵙⴽⴰⴹ", "name:en": "Iskad", "place": "village", "population": null, "is_in": null, "source": null, "name:ar": null, "name:ber": "ⵉⵙⴽⴰⴹ", "osm_id": 512113833, "osm_type": "nodes" }, "geometry": { "type": "Point", "coordinates": [ -6.7163791, 31.6091611 ] } },
{ "type": "Feature", "properties": { "name": "Tagassalt ⵜⴰⴳⴰⵙⴰⵍⵜ", "name:en": "Tagassalt", "place": "village", "population": null, "is_in": null, "source": null, "name:ar": null, "name:ber": "ⵜⴰⴳⴰⵙⴰⵍⵜ", "osm_id": 512114085, "osm_type": "nodes" }, "geometry": { "type": "Point", "coordinates": [ -6.7265092, 31.6086931 ] } },
{ "type": "Feature", "properties": { "name": "Ait Ali N Ito ⴰⵢⵜ ⵄⵍⵉ ⵏ ⵉⵟⵟⵓ", "name:en": "Ait Ali N Ito", "place": "village", "population": null, "is_in": null, "source": null, "name:ar": null, "name:ber": "ⴰⵢⵜ ⵄⵍⵉ ⵏ ⵉⵟⵟⵓ", "osm_id": 1483849568, "osm_type": "nodes" }, "geometry": { "type": "Point", "coordinates": [ -6.7977715, 31.417703 ] } },
{ "type": "Feature", "properties": { "name": "Ait Hamza ⴰⵢⵜ ⵃⵎⵣⴰ", "name:en": "Ait Hamza", "place": "village", "population": null, "is_in": null, "source": null, "name:ar": null, "name:ber": "ⴰⵢⵜ ⵃⵎⵣⴰ", "osm_id": 1483858465, "osm_type": "nodes" }, "geometry": { "type": "Point", "coordinates": [ -6.7748034, 31.4293839 ] } },
{ "type": "Feature", "properties": { "name": null, "name:en": null, "place": "village", "population": null, "is_in": null, "source": null, "name:ar": null, "name:ber": null, "osm_id": 1176930379, "osm_type": "nodes" }, "geometry": { "type": "Point", "coordinates": [ -6.4837802, 31.0134211 ] } },
{ "type": "Feature", "properties": { "name": null, "name:en": null, "place": "village", "population": null, "is_in": null, "source": null, "name:ar": null, "name:ber": null, "osm_id": 1176934748, "osm_type": "nodes" }, "geometry": { "type": "Point", "coordinates": [ -6.4911351, 31.0253627 ] } },
{ "type": "Feature", "properties": { "name": null, "name:en": null, "place": "hamlet", "population": null, "is_in": null, "source": null, "name:ar": null, "name:ber": null, "osm_id": 2892890656, "osm_type": "nodes" }, "geometry": { "type": "Point", "coordinates": [ -6.5326384, 30.9567625 ] } },
{ "type": "Feature", "properties": { "name": "Ait Said ⴰⵢⵜ ⵙⵄⵉⴷ", "name:en": "Ait Said", "place": "village", "population": null, "is_in": null, "source": null, "name:ar": null, "name:ber": "ⴰⵢⵜ ⵙⵄⵉⴷ", "osm_id": 4513903652, "osm_type": "nodes" }, "geometry": { "type": "Point", "coordinates": [ -6.4917022, 31.6174932 ] } },
{ "type": "Feature", "properties": { "name": null, "name:en": null, "place": "hamlet", "population": null, "is_in": null, "source": null, "name:ar": null, "name:ber": null, "osm_id": 3017253674, "osm_type": "nodes" }, "geometry": { "type": "Point", "coordinates": [ -6.4318654, 31.6293481 ] } },
{ "type": "Feature", "properties": { "name": null, "name:en": null, "place": "hamlet", "population": null, "is_in": null, "source": null, "name:ar": null, "name:ber": null, "osm_id": 2704785745, "osm_type": "nodes" }, "geometry": { "type": "Point", "coordinates": [ -6.7613062, 31.3719317 ] } },
{ "type": "Feature", "properties": { "name": null, "name:en": null, "place": "hamlet", "population": null, "is_in": null, "source": null, "name:ar": null, "name:ber": null, "osm_id": 2900367432, "osm_type": "nodes" }, "geometry": { "type": "Point", "coordinates": [ -6.513737, 31.624868 ] } },
{ "type": "Feature", "properties": { "name": null, "name:en": null, "place": "hamlet", "population": null, "is_in": null, "source": null, "name:ar": null, "name:ber": null, "osm_id": 2893720424, "osm_type": "nodes" }, "geometry": { "type": "Point", "coordinates": [ -6.3928035, 30.8451054 ] } },
{ "type": "Feature", "properties": { "name": "Insay ⵉⵏⵙⴰⵢ", "name:en": "Insay", "place": "village", "population": null, "is_in": null, "source": null, "name:ar": null, "name:ber": "ⵉⵏⵙⴰⵢ", "osm_id": 2003123743, "osm_type": "nodes" }, "geometry": { "type": "Point", "coordinates": [ -6.4630824, 30.7860155 ] } },
{ "type": "Feature", "properties": { "name": "Arhbalou ⴰⵖⴱⴰⵍⵓ", "name:en": "Arhbalou", "place": "village", "population": null, "is_in": null, "source": null, "name:ar": null, "name:ber": "ⴰⵖⴱⴰⵍⵓ", "osm_id": 2100606566, "osm_type": "nodes" }, "geometry": { "type": "Point", "coordinates": [ -6.4613501, 30.7970367 ] } },
{ "type": "Feature", "properties": { "name": "Naga ناقة", "name:en": "Naga", "place": "hamlet", "population": null, "is_in": null, "source": null, "name:ar": "ناقة", "name:ber": null, "osm_id": 487173626, "osm_type": "nodes" }, "geometry": { "type": "Point", "coordinates": [ -6.78377, 31.031456 ] } },
{ "type": "Feature", "properties": { "name": "Ouid Isfal", "name:en": null, "place": "hamlet", "population": null, "is_in": null, "source": null, "name:ar": null, "name:ber": null, "osm_id": 4862538796, "osm_type": "nodes" }, "geometry": { "type": "Point", "coordinates": [ -6.2185657, 31.1647786 ] } },
{ "type": "Feature", "properties": { "name": "Tatilt", "name:en": null, "place": "hamlet", "population": null, "is_in": null, "source": null, "name:ar": null, "name:ber": null, "osm_id": 5900117056, "osm_type": "nodes" }, "geometry": { "type": "Point", "coordinates": [ -6.259734, 30.7562704 ] } },
{ "type": "Feature", "properties": { "name": null, "name:en": null, "place": "hamlet", "population": null, "is_in": null, "source": null, "name:ar": null, "name:ber": null, "osm_id": 3475445160, "osm_type": "nodes" }, "geometry": { "type": "Point", "coordinates": [ -6.3320601, 31.8337864 ] } },
{ "type": "Feature", "properties": { "name": null, "name:en": null, "place": "village", "population": null, "is_in": null, "source": null, "name:ar": null, "name:ber": null, "osm_id": 2950245025, "osm_type": "nodes" }, "geometry": { "type": "Point", "coordinates": [ -6.2215186, 31.7901507 ] } },
{ "type": "Feature", "properties": { "name": null, "name:en": null, "place": "village", "population": null, "is_in": null, "source": null, "name:ar": null, "name:ber": null, "osm_id": 2963313339, "osm_type": "nodes" }, "geometry": { "type": "Point", "coordinates": [ -6.2733354, 31.4095817 ] } },
{ "type": "Feature", "properties": { "name": "Imi n'Tiguiza", "name:en": null, "place": "hamlet", "population": null, "is_in": null, "source": null, "name:ar": null, "name:ber": null, "osm_id": 5900117034, "osm_type": "nodes" }, "geometry": { "type": "Point", "coordinates": [ -6.2914109, 30.8750821 ] } },
{ "type": "Feature", "properties": { "name": null, "name:en": null, "place": "village", "population": null, "is_in": null, "source": null, "name:ar": null, "name:ber": null, "osm_id": 1176931027, "osm_type": "nodes" }, "geometry": { "type": "Point", "coordinates": [ -6.5782197, 31.0026712 ] } },
{ "type": "Feature", "properties": { "name": "Zawyat Imdri", "name:en": null, "place": "village", "population": null, "is_in": null, "source": null, "name:ar": null, "name:ber": null, "osm_id": 1176931171, "osm_type": "nodes" }, "geometry": { "type": "Point", "coordinates": [ -6.6304044, 31.0943857 ] } },
{ "type": "Feature", "properties": { "name": "Ouled Mbark", "name:en": null, "place": "hamlet", "population": null, "is_in": null, "source": null, "name:ar": null, "name:ber": null, "osm_id": 2017931000, "osm_type": "nodes" }, "geometry": { "type": "Point", "coordinates": [ -6.574313, 31.0767093 ] } },
{ "type": "Feature", "properties": { "name": null, "name:en": null, "place": "village", "population": null, "is_in": null, "source": null, "name:ar": null, "name:ber": null, "osm_id": 2889645567, "osm_type": "nodes" }, "geometry": { "type": "Point", "coordinates": [ -6.3625104, 31.0159596 ] } },
{ "type": "Feature", "properties": { "name": "Tourbist", "name:en": null, "place": "village", "population": null, "is_in": null, "source": null, "name:ar": null, "name:ber": null, "osm_id": 553066857, "osm_type": "nodes" }, "geometry": { "type": "Point", "coordinates": [ -6.1728944, 31.3488578 ] } },
{ "type": "Feature", "properties": { "name": "Ait Said", "name:en": null, "place": "village", "population": null, "is_in": null, "source": null, "name:ar": null, "name:ber": null, "osm_id": 4921012957, "osm_type": "nodes" }, "geometry": { "type": "Point", "coordinates": [ -6.1692202, 31.3517862 ] } },
{ "type": "Feature", "properties": { "name": "Ksar Taguersift", "name:en": null, "place": "village", "population": null, "is_in": null, "source": null, "name:ar": null, "name:ber": null, "osm_id": 7266445003, "osm_type": "nodes" }, "geometry": { "type": "Point", "coordinates": [ -6.1444808, 30.6489085 ] } },
{ "type": "Feature", "properties": { "name": "Ouzighimt", "name:en": null, "place": "village", "population": null, "is_in": null, "source": null, "name:ar": null, "name:ber": null, "osm_id": 431395428, "osm_type": "nodes" }, "geometry": { "type": "Point", "coordinates": [ -6.2995317, 31.5971295 ] } },
{ "type": "Feature", "properties": { "name": "Ait Khouya", "name:en": null, "place": "hamlet", "population": null, "is_in": null, "source": null, "name:ar": null, "name:ber": null, "osm_id": 2708350204, "osm_type": "nodes" }, "geometry": { "type": "Point", "coordinates": [ -6.311878, 31.5983424 ] } },
{ "type": "Feature", "properties": { "name": "Imélghas ⵉⵎⵍⵖⴰⵙ", "name:en": "Imélghas", "place": "village", "population": null, "is_in": null, "source": null, "name:ar": null, "name:ber": "ⵉⵎⵍⵖⴰⵙ", "osm_id": 2142498233, "osm_type": "nodes" }, "geometry": { "type": "Point", "coordinates": [ -6.4223322, 31.6693351 ] } },
{ "type": "Feature", "properties": { "name": "Ait Imi", "name:en": null, "place": "village", "population": null, "is_in": null, "source": null, "name:ar": null, "name:ber": null, "osm_id": 11054416100, "osm_type": "nodes" }, "geometry": { "type": "Point", "coordinates": [ -6.4059163, 31.6528332 ] } },
{ "type": "Feature", "properties": { "name": "Takatert", "name:en": null, "place": "village", "population": null, "is_in": null, "source": null, "name:ar": null, "name:ber": null, "osm_id": 4612455182, "osm_type": "nodes" }, "geometry": { "type": "Point", "coordinates": [ -6.3297995, 30.6847005 ] } },
{ "type": "Feature", "properties": { "name": "Talat", "name:en": null, "place": "village", "population": null, "is_in": null, "source": null, "name:ar": null, "name:ber": null, "osm_id": 4690277343, "osm_type": "nodes" }, "geometry": { "type": "Point", "coordinates": [ -6.3427826, 30.684336 ] } },
{ "type": "Feature", "properties": { "name": "Zaouit Si Cherki", "name:en": null, "place": "village", "population": null, "is_in": null, "source": null, "name:ar": null, "name:ber": null, "osm_id": 4629042611, "osm_type": "nodes" }, "geometry": { "type": "Point", "coordinates": [ -6.3401072, 30.6832057 ] } },
{ "type": "Feature", "properties": { "name": "Zaouit n-Sidi Boumediane", "name:en": null, "place": "village", "population": null, "is_in": null, "source": null, "name:ar": null, "name:ber": null, "osm_id": 4612455184, "osm_type": "nodes" }, "geometry": { "type": "Point", "coordinates": [ -6.354304, 30.6860014 ] } },
{ "type": "Feature", "properties": { "name": "Talate n'ait Ahmed", "name:en": null, "place": "village", "population": null, "is_in": null, "source": null, "name:ar": null, "name:ber": null, "osm_id": 431395434, "osm_type": "nodes" }, "geometry": { "type": "Point", "coordinates": [ -6.3347449, 31.6052993 ] } },
{ "type": "Feature", "properties": { "name": "Ait Ouchchi", "name:en": null, "place": "hamlet", "population": null, "is_in": null, "source": null, "name:ar": null, "name:ber": null, "osm_id": 5952380036, "osm_type": "nodes" }, "geometry": { "type": "Point", "coordinates": [ -6.3349486, 31.7095129 ] } },
{ "type": "Feature", "properties": { "name": "Kchait", "name:en": null, "place": "village", "population": null, "is_in": null, "source": null, "name:ar": null, "name:ber": null, "osm_id": 2038773628, "osm_type": "nodes" }, "geometry": { "type": "Point", "coordinates": [ -6.7610666, 30.9767727 ] } },
{ "type": "Feature", "properties": { "name": "Douar 10", "name:en": null, "place": "village", "population": null, "is_in": null, "source": null, "name:ar": null, "name:ber": null, "osm_id": 7055317225, "osm_type": "nodes" }, "geometry": { "type": "Point", "coordinates": [ -6.8965485, 31.6248292 ] } },
{ "type": "Feature", "properties": { "name": "Ichkiss ⵉⵛⴽⵉⵙ", "name:en": "Ichkiss", "place": "hamlet", "population": null, "is_in": null, "source": null, "name:ar": null, "name:ber": "ⵉⵛⴽⵉⵙ", "osm_id": 512112574, "osm_type": "nodes" }, "geometry": { "type": "Point", "coordinates": [ -6.3237674, 31.6988259 ] } },
{ "type": "Feature", "properties": { "name": null, "name:en": null, "place": "village", "population": null, "is_in": null, "source": null, "name:ar": null, "name:ber": null, "osm_id": 2724813649, "osm_type": "nodes" }, "geometry": { "type": "Point", "coordinates": [ -6.3002351, 31.7103388 ] } },
{ "type": "Feature", "properties": { "name": "Ait Ouham", "name:en": null, "place": "village", "population": null, "is_in": null, "source": null, "name:ar": null, "name:ber": null, "osm_id": 2724812888, "osm_type": "nodes" }, "geometry": { "type": "Point", "coordinates": [ -6.3067904, 31.7040317 ] } },
{ "type": "Feature", "properties": { "name": null, "name:en": null, "place": "village", "population": null, "is_in": null, "source": null, "name:ar": null, "name:ber": null, "osm_id": 3072481764, "osm_type": "nodes" }, "geometry": { "type": "Point", "coordinates": [ -7.0415052, 32.3046224 ] } },
{ "type": "Feature", "properties": { "name": null, "name:en": null, "place": "hamlet", "population": null, "is_in": null, "source": null, "name:ar": null, "name:ber": null, "osm_id": 3930015746, "osm_type": "nodes" }, "geometry": { "type": "Point", "coordinates": [ -6.9696292, 31.6570438 ] } },
{ "type": "Feature", "properties": { "name": null, "name:en": null, "place": "village", "population": null, "is_in": null, "source": null, "name:ar": null, "name:ber": null, "osm_id": 2951293454, "osm_type": "nodes" }, "geometry": { "type": "Point", "coordinates": [ -6.9412318, 31.5920217 ] } },
{ "type": "Feature", "properties": { "name": null, "name:en": null, "place": "village", "population": null, "is_in": null, "source": null, "name:ar": null, "name:ber": null, "osm_id": 2948385028, "osm_type": "nodes" }, "geometry": { "type": "Point", "coordinates": [ -6.969518, 31.6652308 ] } },
{ "type": "Feature", "properties": { "name": "Douar 8", "name:en": null, "place": "hamlet", "population": null, "is_in": null, "source": null, "name:ar": null, "name:ber": null, "osm_id": 7055317223, "osm_type": "nodes" }, "geometry": { "type": "Point", "coordinates": [ -6.9222817, 31.5873291 ] } },
{ "type": "Feature", "properties": { "name": "Tifni ⵜⵉⴼⵏⵉ تفني", "name:en": "Tifni", "place": "village", "population": null, "is_in": null, "source": null, "name:ar": "تفني", "name:ber": "ⵜⵉⴼⵏⵉ", "osm_id": 553067128, "osm_type": "nodes" }, "geometry": { "type": "Point", "coordinates": [ -6.9445004, 31.627971 ] } },