{"type":"FeatureCollection", "features": [
    {"type":"Feature","geometry":{"type":"Point","coordinates":[-2.9392485,35.0745245]},"properties":{"ID":"n10011660975","NATURE":"Bureau ou hôtel des postes","NOM":"Al Barid Bank","SOURCE":"OpenStreetMap","DATE_MAJ":"2022-09-09"}},
    {"type":"Feature","geometry":{"type":"Point","coordinates":[-6.7538039,34.0246054]},"properties":{"ID":"n10078039804","NATURE":"Bureau ou hôtel des postes","NOM":"","SOURCE":"OpenStreetMap","DATE_MAJ":"2022-10-05"}},
    {"type":"Feature","geometry":{"type":"Point","coordinates":[-7.211198100000001,31.0445138]},"properties":{"ID":"n10218583594","NATURE":"Bureau ou hôtel des postes","NOM":"Poste Maroc","SOURCE":"OpenStreetMap","DATE_MAJ":"2022-11-25"}},
    {"type":"Feature","geometry":{"type":"Point","coordinates":[-7.6670271,31.5627652]},"properties":{"ID":"n10272736109","NATURE":"Bureau ou hôtel des postes","NOM":"","SOURCE":"OpenStreetMap","DATE_MAJ":"2022-12-19"}},
    {"type":"Feature","geometry":{"type":"Point","coordinates":[-7.486711000000001,31.532417600000002]},"properties":{"ID":"n10272948509","NATURE":"Bureau ou hôtel des postes","NOM":"","SOURCE":"OpenStreetMap","DATE_MAJ":"2022-12-19"}},
    {"type":"Feature","geometry":{"type":"Point","coordinates":[-7.2408726,31.2896785]},"properties":{"ID":"n10278023210","NATURE":"Bureau ou hôtel des postes","NOM":"poste maroc, al barid bank","SOURCE":"OpenStreetMap","DATE_MAJ":"2022-12-21"}},
    {"type":"Feature","geometry":{"type":"Point","coordinates":[-6.872138400000001,33.991240600000005]},"properties":{"ID":"n10301872909","NATURE":"Bureau ou hôtel des postes","NOM":"Poste maroc","SOURCE":"OpenStreetMap","DATE_MAJ":"2023-01-03"}},
    {"type":"Feature","geometry":{"type":"Point","coordinates":[-4.4011784,31.490323900000003]},"properties":{"ID":"n1129713365","NATURE":"Bureau ou hôtel des postes","NOM":"Poste du Maroc","SOURCE":"OpenStreetMap","DATE_MAJ":"2011-01-31"}},
    {"type":"Feature","geometry":{"type":"Point","coordinates":[-9.7666395,31.5101659]},"properties":{"ID":"n1185810800","NATURE":"Bureau ou hôtel des postes","NOM":"","SOURCE":"OpenStreetMap","DATE_MAJ":"2012-09-25"}},
    {"type":"Feature","geometry":{"type":"Point","coordinates":[-9.760688100000001,31.5169253]},"properties":{"ID":"n1190839452","NATURE":"Bureau ou hôtel des postes","NOM":"Poste Centrale Mahta","SOURCE":"OpenStreetMap","DATE_MAJ":"2012-09-25"}},
    {"type":"Feature","geometry":{"type":"Point","coordinates":[-6.2815338,34.878708]},"properties":{"ID":"n1290967734","NATURE":"Bureau ou hôtel des postes","NOM":"Poste du Maroc","SOURCE":"OpenStreetMap","DATE_MAJ":"2011-05-18"}},
    {"type":"Feature","geometry":{"type":"Point","coordinates":[-11.678457100000001,26.7399984]},"properties":{"ID":"n1313197980","NATURE":"Bureau ou hôtel des postes","NOM":"","SOURCE":"OpenStreetMap","DATE_MAJ":"2020-01-20"}},
    {"type":"Feature","geometry":{"type":"Point","coordinates":[-9.4237918,28.6085628]},"properties":{"ID":"n1329118968","NATURE":"Bureau ou hôtel des postes","NOM":"","SOURCE":"OpenStreetMap","DATE_MAJ":"2021-12-22"}},
    {"type":"Feature","geometry":{"type":"Point","coordinates":[-7.591510100000001,33.591187000000005]},"properties":{"ID":"n1464579569","NATURE":"Bureau ou hôtel des postes","NOM":"Barid al maghrib","SOURCE":"OpenStreetMap","DATE_MAJ":"2011-10-12"}},
    {"type":"Feature","geometry":{"type":"Point","coordinates":[-10.0322431,29.579582700000003]},"properties":{"ID":"n1635110406","NATURE":"Bureau ou hôtel des postes","NOM":"Bureau de Poste de MA-85350 Mirleft","SOURCE":"OpenStreetMap","DATE_MAJ":"2022-12-02"}},
    {"type":"Feature","geometry":{"type":"Point","coordinates":[-5.0904669,35.4482585]},"properties":{"ID":"n1686961172","NATURE":"Bureau ou hôtel des postes","NOM":"المكتب البريد وادي لو","SOURCE":"OpenStreetMap","DATE_MAJ":"2020-07-16"}},
    {"type":"Feature","geometry":{"type":"Point","coordinates":[-5.8399361,30.325248600000002]},"properties":{"ID":"n1819195440","NATURE":"Bureau ou hôtel des postes","NOM":"","SOURCE":"OpenStreetMap","DATE_MAJ":"2012-07-09"}},
    {"type":"Feature","geometry":{"type":"Point","coordinates":[-5.8152925,35.781008]},"properties":{"ID":"n1822376618","NATURE":"Bureau ou hôtel des postes","NOM":"","SOURCE":"OpenStreetMap","DATE_MAJ":"2015-07-13"}},
    {"type":"Feature","geometry":{"type":"Point","coordinates":[-6.8534011,33.8568386]},"properties":{"ID":"n1824556016","NATURE":"Bureau ou hôtel des postes","NOM":"","SOURCE":"OpenStreetMap","DATE_MAJ":"2012-07-13"}},
    {"type":"Feature","geometry":{"type":"Point","coordinates":[-8.4597695,30.0884837]},"properties":{"ID":"n1834181793","NATURE":"Bureau ou hôtel des postes","NOM":"Poste de Maroc","SOURCE":"OpenStreetMap","DATE_MAJ":"2012-07-22"}},
    {"type":"Feature","geometry":{"type":"Point","coordinates":[-10.1739595,29.378085400000003]},"properties":{"ID":"n2015785269","NATURE":"Bureau ou hôtel des postes","NOM":"Poste Maroc","SOURCE":"OpenStreetMap","DATE_MAJ":"2022-07-30"}},
    {"type":"Feature","geometry":{"type":"Point","coordinates":[-7.13168,31.044364100000003]},"properties":{"ID":"n2024387630","NATURE":"Bureau ou hôtel des postes","NOM":"Poste Maroc","SOURCE":"OpenStreetMap","DATE_MAJ":"2021-04-29"}},
    {"type":"Feature","geometry":{"type":"Point","coordinates":[-4.9933641,34.052934300000004]},"properties":{"ID":"n2031551332","NATURE":"Bureau ou hôtel des postes","NOM":"","SOURCE":"OpenStreetMap","DATE_MAJ":"2018-03-29"}},
    {"type":"Feature","geometry":{"type":"Point","coordinates":[-6.689247300000001,32.3575697]},"properties":{"ID":"n2068137838","NATURE":"Bureau ou hôtel des postes","NOM":"Jamaat Olad Zmam","SOURCE":"OpenStreetMap","DATE_MAJ":"2016-02-16"}},
    {"type":"Feature","geometry":{"type":"Point","coordinates":[-9.158325600000001,30.069084900000004]},"properties":{"ID":"n2131251717","NATURE":"Bureau ou hôtel des postes","NOM":"","SOURCE":"OpenStreetMap","DATE_MAJ":"2013-01-27"}},
    {"type":"Feature","geometry":{"type":"Point","coordinates":[-9.056006400000001,30.115074200000002]},"properties":{"ID":"n2232308816","NATURE":"Bureau ou hôtel des postes","NOM":"","SOURCE":"OpenStreetMap","DATE_MAJ":"2013-03-28"}},
    {"type":"Feature","geometry":{"type":"Point","coordinates":[-9.771397200000001,31.5138931]},"properties":{"ID":"n2305378892","NATURE":"Bureau ou hôtel des postes","NOM":"","SOURCE":"OpenStreetMap","DATE_MAJ":"2022-10-18"}},
    {"type":"Feature","geometry":{"type":"Point","coordinates":[-8.2550905,29.391555500000003]},"properties":{"ID":"n2310250410","NATURE":"Bureau ou hôtel des postes","NOM":"","SOURCE":"OpenStreetMap","DATE_MAJ":"2017-07-24"}},
    {"type":"Feature","geometry":{"type":"Point","coordinates":[-4.4252908,31.933198100000002]},"properties":{"ID":"n2312523060","NATURE":"Bureau ou hôtel des postes","NOM":"","SOURCE":"OpenStreetMap","DATE_MAJ":"2013-05-20"}},
    {"type":"Feature","geometry":{"type":"Point","coordinates":[-6.8742163000000005,30.087353200000003]},"properties":{"ID":"n2328385310","NATURE":"Bureau ou hôtel des postes","NOM":"Poste Foum Zguid","SOURCE":"OpenStreetMap","DATE_MAJ":"2013-06-01"}},
    {"type":"Feature","geometry":{"type":"Point","coordinates":[-5.0055277,34.047193]},"properties":{"ID":"n2328652135","NATURE":"Bureau ou hôtel des postes","NOM":"","SOURCE":"OpenStreetMap","DATE_MAJ":"2013-06-13"}},
    {"type":"Feature","geometry":{"type":"Point","coordinates":[-6.845671100000001,33.9938781]},"properties":{"ID":"n2429166866","NATURE":"Bureau ou hôtel des postes","NOM":"","SOURCE":"OpenStreetMap","DATE_MAJ":"2013-08-23"}},
    {"type":"Feature","geometry":{"type":"Point","coordinates":[-7.396613500000001,33.7062194]},"properties":{"ID":"n2436650376","NATURE":"Bureau ou hôtel des postes","NOM":"Poste","SOURCE":"OpenStreetMap","DATE_MAJ":"2013-08-29"}},
    {"type":"Feature","geometry":{"type":"Point","coordinates":[-7.636324200000001,33.5799298]},"properties":{"ID":"n2640991969","NATURE":"Bureau ou hôtel des postes","NOM":"Poste Bir Anzaran","SOURCE":"OpenStreetMap","DATE_MAJ":"2014-01-28"}},
    {"type":"Feature","geometry":{"type":"Point","coordinates":[-6.8416636,34.0269599]},"properties":{"ID":"n2742615342","NATURE":"Bureau ou hôtel des postes","NOM":"","SOURCE":"OpenStreetMap","DATE_MAJ":"2014-03-25"}},
    {"type":"Feature","geometry":{"type":"Point","coordinates":[-7.6764187,33.5922876]},"properties":{"ID":"n2881050316","NATURE":"Bureau ou hôtel des postes","NOM":"CASA AIN DIAB","SOURCE":"OpenStreetMap","DATE_MAJ":"2016-03-08"}},
    {"type":"Feature","geometry":{"type":"Point","coordinates":[-7.391000000000001,33.687000000000005]},"properties":{"ID":"n2907398961","NATURE":"Bureau ou hôtel des postes","NOM":"Mohammadia El Alia","SOURCE":"OpenStreetMap","DATE_MAJ":"2016-02-17"}},
    {"type":"Feature","geometry":{"type":"Point","coordinates":[-7.391000000000001,33.676]},"properties":{"ID":"n2907398962","NATURE":"Bureau ou hôtel des postes","NOM":"Mohammadia Hassania","SOURCE":"OpenStreetMap","DATE_MAJ":"2016-02-17"}},
    {"type":"Feature","geometry":{"type":"Point","coordinates":[-7.376,33.684000000000005]},"properties":{"ID":"n2907398965","NATURE":"Bureau ou hôtel des postes","NOM":"Mohammedia Rachidia","SOURCE":"OpenStreetMap","DATE_MAJ":"2016-02-17"}},
    {"type":"Feature","geometry":{"type":"Point","coordinates":[-9.5554,30.4079]},"properties":{"ID":"n2907748195","NATURE":"Bureau ou hôtel des postes","NOM":"Agadir Al Fiddia","SOURCE":"OpenStreetMap","DATE_MAJ":"2016-02-17"}},
    {"type":"Feature","geometry":{"type":"Point","coordinates":[-9.602,30.412000000000003]},"properties":{"ID":"n2907748196","NATURE":"Bureau ou hôtel des postes","NOM":"Agadir Cite Balneaire","SOURCE":"OpenStreetMap","DATE_MAJ":"2016-02-17"}},
    {"type":"Feature","geometry":{"type":"Point","coordinates":[-9.5724,30.422]},"properties":{"ID":"n2907748198","NATURE":"Bureau ou hôtel des postes","NOM":"Agadir El Khiam","SOURCE":"OpenStreetMap","DATE_MAJ":"2016-02-17"}},
    {"type":"Feature","geometry":{"type":"Point","coordinates":[-9.5499045,30.403298900000003]},"properties":{"ID":"n2907751301","NATURE":"Bureau ou hôtel des postes","NOM":"Agadir Hay Essalam","SOURCE":"OpenStreetMap","DATE_MAJ":"2017-09-07"}},
    {"type":"Feature","geometry":{"type":"Point","coordinates":[-9.589109800000001,30.4139106]},"properties":{"ID":"n2907751303","NATURE":"Bureau ou hôtel des postes","NOM":"Agadir Quartier Industriel","SOURCE":"OpenStreetMap","DATE_MAJ":"2016-03-08"}},
    {"type":"Feature","geometry":{"type":"Point","coordinates":[-9.579400000000001,30.4129]},"properties":{"ID":"n2907751304","NATURE":"Bureau ou hôtel des postes","NOM":"Agadir Souk El Had","SOURCE":"OpenStreetMap","DATE_MAJ":"2016-03-08"}},
    {"type":"Feature","geometry":{"type":"Point","coordinates":[-9.591000000000001,30.423000000000002]},"properties":{"ID":"n2907751305","NATURE":"Bureau ou hôtel des postes","NOM":"Agadir Talborjt","SOURCE":"OpenStreetMap","DATE_MAJ":"2016-02-17"}},
    {"type":"Feature","geometry":{"type":"Point","coordinates":[-5.298225,32.6789411]},"properties":{"ID":"n2907751306","NATURE":"Bureau ou hôtel des postes","NOM":"Aghbalou Nserdane","SOURCE":"OpenStreetMap","DATE_MAJ":"2020-11-24"}},
    {"type":"Feature","geometry":{"type":"Point","coordinates":[-5.847250300000001,33.1578388]},"properties":{"ID":"n2907751308","NATURE":"Bureau ou hôtel des postes","NOM":"Aguelmouss","SOURCE":"OpenStreetMap","DATE_MAJ":"2020-11-24"}},
    {"type":"Feature","geometry":{"type":"Point","coordinates":[-2.0247999,34.0158375]},"properties":{"ID":"n2907751312","NATURE":"Bureau ou hôtel des postes","NOM":"Ain Bni Mathar","SOURCE":"OpenStreetMap","DATE_MAJ":"2016-02-15"}},
    {"type":"Feature","geometry":{"type":"Point","coordinates":[-5.0370217,33.886898900000006]},"properties":{"ID":"n2907751313","NATURE":"Bureau ou hôtel des postes","NOM":"Ain Cheggag","SOURCE":"OpenStreetMap","DATE_MAJ":"2018-06-03"}},
    {"type":"Feature","geometry":{"type":"Point","coordinates":[-5.549917300000001,34.598101]},"properties":{"ID":"n2907751315","NATURE":"Bureau ou hôtel des postes","NOM":"Ain Deffali","SOURCE":"OpenStreetMap","DATE_MAJ":"2020-11-20"}},
    {"type":"Feature","geometry":{"type":"Point","coordinates":[-2.0458701,34.483419600000005]},"properties":{"ID":"n2907751316","NATURE":"Bureau ou hôtel des postes","NOM":"Ain El Guenfouda","SOURCE":"OpenStreetMap","DATE_MAJ":"2016-02-15"}},
    {"type":"Feature","geometry":{"type":"Point","coordinates":[-6.7908087,33.806254]},"properties":{"ID":"n2907751317","NATURE":"Bureau ou hôtel des postes","NOM":"Ain El Ouda","SOURCE":"OpenStreetMap","DATE_MAJ":"2020-11-20"}},
    {"type":"Feature","geometry":{"type":"Point","coordinates":[-2.2329719000000003,34.934045000000005]},"properties":{"ID":"n2907751318","NATURE":"Bureau ou hôtel des postes","NOM":"Ain Erregada","SOURCE":"OpenStreetMap","DATE_MAJ":"2016-03-20"}},
    {"type":"Feature","geometry":{"type":"Point","coordinates":[-7.45,33.637]},"properties":{"ID":"n2907751320","NATURE":"Bureau ou hôtel des postes","NOM":"Ain Harrouda","SOURCE":"OpenStreetMap","DATE_MAJ":"2016-02-17"}},
    {"type":"Feature","geometry":{"type":"Point","coordinates":[-5.7940515,34.0251125]},"properties":{"ID":"n2907751321","NATURE":"Bureau ou hôtel des postes","NOM":"Ain Jemaa","SOURCE":"OpenStreetMap","DATE_MAJ":"2020-11-20"}},
    {"type":"Feature","geometry":{"type":"Point","coordinates":[-5.3387,33.291645800000005]},"properties":{"ID":"n2907751322","NATURE":"Bureau ou hôtel des postes","NOM":"Ain Leuh","SOURCE":"OpenStreetMap","DATE_MAJ":"2018-06-01"}},
    {"type":"Feature","geometry":{"type":"Point","coordinates":[-5.21,33.945]},"properties":{"ID":"n2907751325","NATURE":"Bureau ou hôtel des postes","NOM":"Ain Taoujdate","SOURCE":"OpenStreetMap","DATE_MAJ":"2016-02-17"}},
    {"type":"Feature","geometry":{"type":"Point","coordinates":[-3.5340000000000003,34.658]},"properties":{"ID":"n2907751326","NATURE":"Bureau ou hôtel des postes","NOM":"Ain Zorah","SOURCE":"OpenStreetMap","DATE_MAJ":"2016-02-17"}},
    {"type":"Feature","geometry":{"type":"Point","coordinates":[-9.349798,31.079844800000004]},"properties":{"ID":"n2907751331","NATURE":"Bureau ou hôtel des postes","NOM":"Ait Daoud","SOURCE":"OpenStreetMap","DATE_MAJ":"2020-11-24"}},
    {"type":"Feature","geometry":{"type":"Point","coordinates":[-9.492013400000001,30.3320486]},"properties":{"ID":"n2907751338","NATURE":"Bureau ou hôtel des postes","NOM":"Ait Melloul Zone Industrielle","SOURCE":"OpenStreetMap","DATE_MAJ":"2016-02-17"}},
    {"type":"Feature","geometry":{"type":"Point","coordinates":[-3.9140096000000004,35.193697]},"properties":{"ID":"n2907751341","NATURE":"Bureau ou hôtel des postes","NOM":"Ait Youssef Ou Ali","SOURCE":"OpenStreetMap","DATE_MAJ":"2016-02-17"}},
    {"type":"Feature","geometry":{"type":"Point","coordinates":[-3.9317388,35.243607100000006]},"properties":{"ID":"n2907751345","NATURE":"Bureau ou hôtel des postes","NOM":"Al Hoceima PPAL","SOURCE":"OpenStreetMap","DATE_MAJ":"2016-02-17"}},
    {"type":"Feature","geometry":{"type":"Point","coordinates":[-4.829418400000001,33.382403700000005]},"properties":{"ID":"n2907751346","NATURE":"Bureau ou hôtel des postes","NOM":"Almis Guigou","SOURCE":"OpenStreetMap","DATE_MAJ":"2018-06-15"}},
    {"type":"Feature","geometry":{"type":"Point","coordinates":[-5.1682753,31.1159421]},"properties":{"ID":"n2907751347","NATURE":"Bureau ou hôtel des postes","NOM":"Alnif","SOURCE":"OpenStreetMap","DATE_MAJ":"2020-11-23"}},
    {"type":"Feature","geometry":{"type":"Point","coordinates":[-4.1792296,31.688222900000003]},"properties":{"ID":"n2907751352","NATURE":"Bureau ou hôtel des postes","NOM":"Aoufous","SOURCE":"OpenStreetMap","DATE_MAJ":"2020-11-23"}},
    {"type":"Feature","geometry":{"type":"Point","coordinates":[-9.6701189,30.4972764]},"properties":{"ID":"n2907751354","NATURE":"Bureau ou hôtel des postes","NOM":"Aourir","SOURCE":"OpenStreetMap","DATE_MAJ":"2016-02-17"}},
    {"type":"Feature","geometry":{"type":"Point","coordinates":[-14.333450500000001,22.5503535]},"properties":{"ID":"n2907751355","NATURE":"Bureau ou hôtel des postes","NOM":"Auserd أوسرد","SOURCE":"OpenStreetMap","DATE_MAJ":"2021-12-20"}},
    {"type":"Feature","geometry":{"type":"Point","coordinates":[-9.6363561,31.424504700000004]},"properties":{"ID":"n2907751359","NATURE":"Bureau ou hôtel des postes","NOM":"Arbaa Ida Ougourd","SOURCE":"OpenStreetMap","DATE_MAJ":"2022-09-16"}},
    {"type":"Feature","geometry":{"type":"Point","coordinates":[-9.5496821,29.8004317]},"properties":{"ID":"n2907751360","NATURE":"Bureau ou hôtel des postes","NOM":"Arbaa Ras Mouka","SOURCE":"OpenStreetMap","DATE_MAJ":"2016-02-17"}},
    {"type":"Feature","geometry":{"type":"Point","coordinates":[-5.9292531,34.9067346]},"properties":{"ID":"n2907751363","NATURE":"Bureau ou hôtel des postes","NOM":"Arbaoua","SOURCE":"OpenStreetMap","DATE_MAJ":"2019-04-04"}},
    {"type":"Feature","geometry":{"type":"Point","coordinates":[-9.124197,30.7793242]},"properties":{"ID":"n2907751364","NATURE":"Bureau ou hôtel des postes","NOM":"Poste Maroc Argana Centre","SOURCE":"OpenStreetMap","DATE_MAJ":"2020-11-24"}},
    {"type":"Feature","geometry":{"type":"Point","coordinates":[-7.7772984,30.738903800000003]},"properties":{"ID":"n2907751367","NATURE":"Bureau ou hôtel des postes","NOM":"Askaoun","SOURCE":"OpenStreetMap","DATE_MAJ":"2020-11-23"}},
    {"type":"Feature","geometry":{"type":"Point","coordinates":[-5.356881100000001,35.318780100000005]},"properties":{"ID":"n2907751368","NATURE":"Bureau ou hôtel des postes","NOM":"Asmaten","SOURCE":"OpenStreetMap","DATE_MAJ":"2019-10-19"}},
    {"type":"Feature","geometry":{"type":"Point","coordinates":[-5.0507166,31.504805400000002]},"properties":{"ID":"n2907751370","NATURE":"Bureau ou hôtel des postes","NOM":"Asrir Oued Ferkla","SOURCE":"OpenStreetMap","DATE_MAJ":"2020-11-23"}},
    {"type":"Feature","geometry":{"type":"Point","coordinates":[-5.2130308,31.9477356]},"properties":{"ID":"n2907751371","NATURE":"Bureau ou hôtel des postes","NOM":"Assoul","SOURCE":"OpenStreetMap","DATE_MAJ":"2020-11-23"}},
    {"type":"Feature","geometry":{"type":"Point","coordinates":[-5.2285921,33.444091900000004]},"properties":{"ID":"n2907751372","NATURE":"Bureau ou hôtel des postes","NOM":"Azrou Ahadaf","SOURCE":"OpenStreetMap","DATE_MAJ":"2017-03-03"}},
    {"type":"Feature","geometry":{"type":"Point","coordinates":[-4.891,34.998000000000005]},"properties":{"ID":"n2907751375","NATURE":"Bureau ou hôtel des postes","NOM":"Bab Berret","SOURCE":"OpenStreetMap","DATE_MAJ":"2021-07-17"}},
    {"type":"Feature","geometry":{"type":"Point","coordinates":[-4.0430981,34.4149843]},"properties":{"ID":"n2907751376","NATURE":"Bureau ou hôtel des postes","NOM":"Bab El Mrouj","SOURCE":"OpenStreetMap","DATE_MAJ":"2019-09-25"}},
    {"type":"Feature","geometry":{"type":"Point","coordinates":[-4.1443026000000005,34.2107551]},"properties":{"ID":"n2907751377","NATURE":"Bureau ou hôtel des postes","NOM":"Bab Marzouka","SOURCE":"OpenStreetMap","DATE_MAJ":"2018-05-08"}},
    {"type":"Feature","geometry":{"type":"Point","coordinates":[-6.397,32.777]},"properties":{"ID":"n2907751379","NATURE":"Bureau ou hôtel des postes","NOM":"Bejjaad 11 Janvier","SOURCE":"OpenStreetMap","DATE_MAJ":"2020-11-24"}},
    {"type":"Feature","geometry":{"type":"Point","coordinates":[-3.4547554000000003,35.044023700000004]},"properties":{"ID":"n2907751381","NATURE":"Bureau ou hôtel des postes","NOM":"Ben Taieb","SOURCE":"OpenStreetMap","DATE_MAJ":"2016-03-08"}},
    {"type":"Feature","geometry":{"type":"Point","coordinates":[-7.9580174,32.243246400000004]},"properties":{"ID":"n2907751382","NATURE":"Bureau ou hôtel des postes","NOM":"Benguerir Ville","SOURCE":"OpenStreetMap","DATE_MAJ":"2020-11-24"}},
    {"type":"Feature","geometry":{"type":"Point","coordinates":[-4.204627100000001,34.327066300000006]},"properties":{"ID":"n2907751385","NATURE":"Bureau ou hôtel des postes","NOM":"Beni Lennt","SOURCE":"OpenStreetMap","DATE_MAJ":"2016-02-17"}},
    {"type":"Feature","geometry":{"type":"Point","coordinates":[-6.3580000000000005,32.345]},"properties":{"ID":"n2907751386","NATURE":"Bureau ou hôtel des postes","NOM":"Beni Mellal Hay Mohammadi","SOURCE":"OpenStreetMap","DATE_MAJ":"2020-11-24"}},
    {"type":"Feature","geometry":{"type":"Point","coordinates":[-3.4672300000000003,32.290877200000004]},"properties":{"ID":"n2907751388","NATURE":"Bureau ou hôtel des postes","NOM":"Beni Tajjite","SOURCE":"OpenStreetMap","DATE_MAJ":"2020-11-23"}},
    {"type":"Feature","geometry":{"type":"Point","coordinates":[-9.5686,30.393]},"properties":{"ID":"n2907751389","NATURE":"Bureau ou hôtel des postes","NOM":"Bensergao","SOURCE":"OpenStreetMap","DATE_MAJ":"2016-02-17"}},
    {"type":"Feature","geometry":{"type":"Point","coordinates":[-2.3232876,34.919906700000006]},"properties":{"ID":"n2907751391","NATURE":"Bureau ou hôtel des postes","NOM":"Berkane El Graba","SOURCE":"OpenStreetMap","DATE_MAJ":"2016-05-22"}},
    {"type":"Feature","geometry":{"type":"Point","coordinates":[-2.3313643,34.927124400000004]},"properties":{"ID":"n2907751393","NATURE":"Bureau ou hôtel des postes","NOM":"Berkane Ppal","SOURCE":"OpenStreetMap","DATE_MAJ":"2016-05-22"}},
    {"type":"Feature","geometry":{"type":"Point","coordinates":[-7.590186900000001,33.2575202]},"properties":{"ID":"n2907751395","NATURE":"Bureau ou hôtel des postes","NOM":"Berrechid Yasmina","SOURCE":"OpenStreetMap","DATE_MAJ":"2016-02-17"}},
    {"type":"Feature","geometry":{"type":"Point","coordinates":[-6.447803400000001,32.107574500000005]},"properties":{"ID":"n2907751396","NATURE":"Bureau ou hôtel des postes","NOM":"Bine El Ouidane","SOURCE":"OpenStreetMap","DATE_MAJ":"2020-11-24"}},
    {"type":"Feature","geometry":{"type":"Point","coordinates":[-9.069,30.0344]},"properties":{"ID":"n2907751397","NATURE":"Bureau ou hôtel des postes","NOM":"Biougra","SOURCE":"OpenStreetMap","DATE_MAJ":"2016-02-17"}},
    {"type":"Feature","geometry":{"type":"Point","coordinates":[-16.4674,21.6127]},"properties":{"ID":"n2907751398","NATURE":"Bureau ou hôtel des postes","NOM":"Bir Gandouz","SOURCE":"OpenStreetMap","DATE_MAJ":"2020-11-26"}},
    {"type":"Feature","geometry":{"type":"Point","coordinates":[-7.992000000000001,33.372]},"properties":{"ID":"n2907751399","NATURE":"Bureau ou hôtel des postes","NOM":"Bir Jdid","SOURCE":"OpenStreetMap","DATE_MAJ":"2016-03-08"}},
    {"type":"Feature","geometry":{"type":"Point","coordinates":[-4.644,33.981]},"properties":{"ID":"n2907751400","NATURE":"Bureau ou hôtel des postes","NOM":"Bir Tamtam","SOURCE":"OpenStreetMap","DATE_MAJ":"2016-02-17"}},
    {"type":"Feature","geometry":{"type":"Point","coordinates":[-9.374408200000001,31.275771100000004]},"properties":{"ID":"n2907752001","NATURE":"Bureau ou hôtel des postes","NOM":"Bizdad","SOURCE":"OpenStreetMap","DATE_MAJ":"2020-11-24"}},
    {"type":"Feature","geometry":{"type":"Point","coordinates":[-5.0766193,34.84877]},"properties":{"ID":"n2907752002","NATURE":"Bureau ou hôtel des postes","NOM":"Bni Ahmed","SOURCE":"OpenStreetMap","DATE_MAJ":"2016-02-17"}},
    {"type":"Feature","geometry":{"type":"Point","coordinates":[-4.156935,34.8113675]},"properties":{"ID":"n2907752003","NATURE":"Bureau ou hôtel des postes","NOM":"Bni Ammart","SOURCE":"OpenStreetMap","DATE_MAJ":"2021-07-14"}},
    {"type":"Feature","geometry":{"type":"Point","coordinates":[-6.5854599,32.2127616]},"properties":{"ID":"n2907752004","NATURE":"Bureau ou hôtel des postes","NOM":"Bni Ayat","SOURCE":"OpenStreetMap","DATE_MAJ":"2020-12-02"}},
    {"type":"Feature","geometry":{"type":"Point","coordinates":[-4.3109718,35.1004596]},"properties":{"ID":"n2907752005","NATURE":"Bureau ou hôtel des postes","NOM":"Bni Boufrah","SOURCE":"OpenStreetMap","DATE_MAJ":"2021-07-14"}},
    {"type":"Feature","geometry":{"type":"Point","coordinates":[-5.4257041,35.507814700000004]},"properties":{"ID":"n2907752007","NATURE":"Bureau ou hôtel des postes","NOM":"Bni Karrich Fouki","SOURCE":"OpenStreetMap","DATE_MAJ":"2018-04-15"}},
    {"type":"Feature","geometry":{"type":"Point","coordinates":[-7.3787191000000005,32.6425178]},"properties":{"ID":"n2907752008","NATURE":"Bureau ou hôtel des postes","NOM":"Bni Khloug","SOURCE":"OpenStreetMap","DATE_MAJ":"2016-02-17"}},
    {"type":"Feature","geometry":{"type":"Point","coordinates":[-3.049598,32.0368969]},"properties":{"ID":"n2907752012","NATURE":"Bureau ou hôtel des postes","NOM":"Bouanane","SOURCE":"OpenStreetMap","DATE_MAJ":"2020-11-23"}},
    {"type":"Feature","geometry":{"type":"Point","coordinates":[-4.439485,32.7214252]},"properties":{"ID":"n2907752014","NATURE":"Bureau ou hôtel des postes","NOM":"Bouayache","SOURCE":"OpenStreetMap","DATE_MAJ":"2022-09-11"}},
    {"type":"Feature","geometry":{"type":"Point","coordinates":[-3.6332696,35.1536816]},"properties":{"ID":"n2907752015","NATURE":"Bureau ou hôtel des postes","NOM":"Boudinar","SOURCE":"OpenStreetMap","DATE_MAJ":"2018-05-05"}},
    {"type":"Feature","geometry":{"type":"Point","coordinates":[-5.486000000000001,33.754000000000005]},"properties":{"ID":"n2907752016","NATURE":"Bureau ou hôtel des postes","NOM":"Boufekrane","SOURCE":"OpenStreetMap","DATE_MAJ":"2016-02-17"}},
    {"type":"Feature","geometry":{"type":"Point","coordinates":[-14.482000000000001,26.127000000000002]},"properties":{"ID":"n2907752018","NATURE":"Bureau ou hôtel des postes","NOM":"Boujdour","SOURCE":"OpenStreetMap","DATE_MAJ":"2020-11-20"}},
    {"type":"Feature","geometry":{"type":"Point","coordinates":[-5.1011967,32.7242277]},"properties":{"ID":"n2907752022","NATURE":"Bureau ou hôtel des postes","NOM":"Boumia","SOURCE":"OpenStreetMap","DATE_MAJ":"2020-11-23"}},
    {"type":"Feature","geometry":{"type":"Point","coordinates":[-4.093692,34.7340998]},"properties":{"ID":"n2907752023","NATURE":"Bureau ou hôtel des postes","NOM":"Bourd","SOURCE":"OpenStreetMap","DATE_MAJ":"2016-02-15"}},
    {"type":"Feature","geometry":{"type":"Point","coordinates":[-7.650449,33.4563915]},"properties":{"ID":"n2907752024","NATURE":"Bureau ou hôtel des postes","NOM":"La Poste de Bouskoura","SOURCE":"OpenStreetMap","DATE_MAJ":"2016-03-08"}},
    {"type":"Feature","geometry":{"type":"Point","coordinates":[-7.1585464000000005,33.7800406]},"properties":{"ID":"n2907752026","NATURE":"Bureau ou hôtel des postes","NOM":"Bouznika Hay Riad","SOURCE":"OpenStreetMap","DATE_MAJ":"2017-03-29"}},
    {"type":"Feature","geometry":{"type":"Point","coordinates":[-6.5336335000000005,32.4502381]},"properties":{"ID":"n2907752027","NATURE":"Bureau ou hôtel des postes","NOM":"Bradia Sanabil","SOURCE":"OpenStreetMap","DATE_MAJ":"2020-11-24"}},
    {"type":"Feature","geometry":{"type":"Point","coordinates":[-7.611000000000001,33.569]},"properties":{"ID":"n2907752029","NATURE":"Bureau ou hôtel des postes","NOM":"Casablanca 2 mars","SOURCE":"OpenStreetMap","DATE_MAJ":"2018-10-25"}},
    {"type":"Feature","geometry":{"type":"Point","coordinates":[-7.5785825,33.3892455]},"properties":{"ID":"n2907752030","NATURE":"Bureau ou hôtel des postes","NOM":"Casa Aeroport Mohamed V","SOURCE":"OpenStreetMap","DATE_MAJ":"2016-02-17"}},
    {"type":"Feature","geometry":{"type":"Point","coordinates":[-7.5840000000000005,33.585]},"properties":{"ID":"n2907752031","NATURE":"Bureau ou hôtel des postes","NOM":"Casa Ain Borja","SOURCE":"OpenStreetMap","DATE_MAJ":"2016-02-17"}},
    {"type":"Feature","geometry":{"type":"Point","coordinates":[-7.596572800000001,33.556072]},"properties":{"ID":"n2907752032","NATURE":"Bureau ou hôtel des postes","NOM":"Casablanca Ain Chock","SOURCE":"OpenStreetMap","DATE_MAJ":"2016-05-24"}},
    {"type":"Feature","geometry":{"type":"Point","coordinates":[-7.5360000000000005,33.620000000000005]},"properties":{"ID":"n2907752034","NATURE":"Bureau ou hôtel des postes","NOM":"Casa Ain Sebaa Plage","SOURCE":"OpenStreetMap","DATE_MAJ":"2022-11-08"}},
    {"type":"Feature","geometry":{"type":"Point","coordinates":[-7.54,33.604]},"properties":{"ID":"n2907752035","NATURE":"Bureau ou hôtel des postes","NOM":"Casa Ain Sebaa","SOURCE":"OpenStreetMap","DATE_MAJ":"2022-11-08"}},
    {"type":"Feature","geometry":{"type":"Point","coordinates":[-7.4847494,33.6177423]},"properties":{"ID":"n2907752036","NATURE":"Bureau ou hôtel des postes","NOM":"Casablanca Al Qods","SOURCE":"OpenStreetMap","DATE_MAJ":"2022-11-07"}},
    {"type":"Feature","geometry":{"type":"Point","coordinates":[-7.5313568,33.5698704]},"properties":{"ID":"n2907752037","NATURE":"Bureau ou hôtel des postes","NOM":"Casa Attacharouk","SOURCE":"OpenStreetMap","DATE_MAJ":"2022-10-24"}},
    {"type":"Feature","geometry":{"type":"Point","coordinates":[-7.6071081000000005,33.592429700000004]},"properties":{"ID":"n2907752038","NATURE":"Bureau ou hôtel des postes","NOM":"Casa Bandoeng","SOURCE":"OpenStreetMap","DATE_MAJ":"2016-06-10"}},
    {"type":"Feature","geometry":{"type":"Point","coordinates":[-7.497000000000001,33.612]},"properties":{"ID":"n2907752039","NATURE":"Bureau ou hôtel des postes","NOM":"Casa Bd El Guernaoui","SOURCE":"OpenStreetMap","DATE_MAJ":"2016-02-17"}},
    {"type":"Feature","geometry":{"type":"Point","coordinates":[-7.637338000000001,33.5950536]},"properties":{"ID":"n2907752040","NATURE":"Bureau ou hôtel des postes","NOM":"Casa Bourgogne","SOURCE":"OpenStreetMap","DATE_MAJ":"2017-08-31"}},
    {"type":"Feature","geometry":{"type":"Point","coordinates":[-7.613,33.595]},"properties":{"ID":"n2907752041","NATURE":"Bureau ou hôtel des postes","NOM":"Casa Bourse","SOURCE":"OpenStreetMap","DATE_MAJ":"2016-02-17"}},
    {"type":"Feature","geometry":{"type":"Point","coordinates":[-7.6169893,33.6001251]},"properties":{"ID":"n2907752042","NATURE":"Bureau ou hôtel des postes","NOM":"Casa Bousmara","SOURCE":"OpenStreetMap","DATE_MAJ":"2018-06-24"}},
    {"type":"Feature","geometry":{"type":"Point","coordinates":[-7.57,33.551]},"properties":{"ID":"n2907752043","NATURE":"Bureau ou hôtel des postes","NOM":"Casa Cite Djemaa","SOURCE":"OpenStreetMap","DATE_MAJ":"2016-02-17"}},
    {"type":"Feature","geometry":{"type":"Point","coordinates":[-7.557709300000001,33.593340500000004]},"properties":{"ID":"n2907752044","NATURE":"Bureau ou hôtel des postes","NOM":"Casa Dar Lamane","SOURCE":"OpenStreetMap","DATE_MAJ":"2017-03-30"}},
    {"type":"Feature","geometry":{"type":"Point","coordinates":[-7.632000000000001,33.57]},"properties":{"ID":"n2907752045","NATURE":"Bureau ou hôtel des postes","NOM":"Casa Derb Ghallef","SOURCE":"OpenStreetMap","DATE_MAJ":"2016-02-17"}},
    {"type":"Feature","geometry":{"type":"Point","coordinates":[-7.604,33.577000000000005]},"properties":{"ID":"n2907752046","NATURE":"Bureau ou hôtel des postes","NOM":"Casa Derb Sidna","SOURCE":"OpenStreetMap","DATE_MAJ":"2016-02-17"}},
    {"type":"Feature","geometry":{"type":"Point","coordinates":[-7.605,33.567]},"properties":{"ID":"n2907752047","NATURE":"Bureau ou hôtel des postes","NOM":"Casablanca El Fida","SOURCE":"OpenStreetMap","DATE_MAJ":"2016-03-08"}},
    {"type":"Feature","geometry":{"type":"Point","coordinates":[-7.6530000000000005,33.604]},"properties":{"ID":"n2907752048","NATURE":"Bureau ou hôtel des postes","NOM":"Casablanca El Hank","SOURCE":"OpenStreetMap","DATE_MAJ":"2016-03-08"}},
    {"type":"Feature","geometry":{"type":"Point","coordinates":[-7.5246491,33.5800525]},"properties":{"ID":"n2907752049","NATURE":"Bureau ou hôtel des postes","NOM":"Casa El Houda","SOURCE":"OpenStreetMap","DATE_MAJ":"2017-12-18"}},
    {"type":"Feature","geometry":{"type":"Point","coordinates":[-7.591,33.591]},"properties":{"ID":"n2907752050","NATURE":"Bureau ou hôtel des postes","NOM":"Casablanca Gare","SOURCE":"OpenStreetMap","DATE_MAJ":"2016-03-08"}},
    {"type":"Feature","geometry":{"type":"Point","coordinates":[-7.549,33.561]},"properties":{"ID":"n2907752052","NATURE":"Bureau ou hôtel des postes","NOM":"Casa Hay El Falah","SOURCE":"OpenStreetMap","DATE_MAJ":"2016-02-17"}},
    {"type":"Feature","geometry":{"type":"Point","coordinates":[-7.5907597,33.5676008]},"properties":{"ID":"n2907752053","NATURE":"Bureau ou hôtel des postes","NOM":"Casa Hay El Farah","SOURCE":"OpenStreetMap","DATE_MAJ":"2022-11-07"}},
    {"type":"Feature","geometry":{"type":"Point","coordinates":[-7.6000000000000005,33.537]},"properties":{"ID":"n2907752054","NATURE":"Bureau ou hôtel des postes","NOM":"Casa Hay El Inara","SOURCE":"OpenStreetMap","DATE_MAJ":"2016-02-17"}},
    {"type":"Feature","geometry":{"type":"Point","coordinates":[-7.6530000000000005,33.571000000000005]},"properties":{"ID":"n2907752056","NATURE":"Bureau ou hôtel des postes","NOM":"Casa Hay Essalam","SOURCE":"OpenStreetMap","DATE_MAJ":"2016-02-17"}},
    {"type":"Feature","geometry":{"type":"Point","coordinates":[-7.673452800000001,33.5730972]},"properties":{"ID":"n2907752057","NATURE":"Bureau ou hôtel des postes","NOM":"Casa Hay Hassani","SOURCE":"OpenStreetMap","DATE_MAJ":"2016-04-08"}},
    {"type":"Feature","geometry":{"type":"Point","coordinates":[-7.588,33.554]},"properties":{"ID":"n2907752058","NATURE":"Bureau ou hôtel des postes","NOM":"Casa Hay Ifriquia","SOURCE":"OpenStreetMap","DATE_MAJ":"2016-02-17"}},
    {"type":"Feature","geometry":{"type":"Point","coordinates":[-7.571388000000001,33.5406828]},"properties":{"ID":"n2907752059","NATURE":"Bureau ou hôtel des postes","NOM":"Casa Hay Jamila","SOURCE":"OpenStreetMap","DATE_MAJ":"2018-09-16"}},
    {"type":"Feature","geometry":{"type":"Point","coordinates":[-7.557739000000001,33.572770600000005]},"properties":{"ID":"n2907752060","NATURE":"Bureau ou hôtel des postes","NOM":"Casa Hay My Rachid","SOURCE":"OpenStreetMap","DATE_MAJ":"2016-05-30"}},
    {"type":"Feature","geometry":{"type":"Point","coordinates":[-7.511,33.594]},"properties":{"ID":"n2907752061","NATURE":"Bureau ou hôtel des postes","NOM":"Casa Hay Rhamna","SOURCE":"OpenStreetMap","DATE_MAJ":"2016-02-17"}},
    {"type":"Feature","geometry":{"type":"Point","coordinates":[-7.599,33.557]},"properties":{"ID":"n2907752062","NATURE":"Bureau ou hôtel des postes","NOM":"Casa Hay Rmila","SOURCE":"OpenStreetMap","DATE_MAJ":"2018-05-29"}},
    {"type":"Feature","geometry":{"type":"Point","coordinates":[-7.554112600000001,33.5385586]},"properties":{"ID":"n2907752063","NATURE":"Bureau ou hôtel des postes","NOM":"poste du Maroc","SOURCE":"OpenStreetMap","DATE_MAJ":"2016-05-01"}},
    {"type":"Feature","geometry":{"type":"Point","coordinates":[-7.5831328000000005,33.5392432]},"properties":{"ID":"n2907752064","NATURE":"Bureau ou hôtel des postes","NOM":"Casablanca Hay Yasmina","SOURCE":"OpenStreetMap","DATE_MAJ":"2016-05-24"}},
    {"type":"Feature","geometry":{"type":"Point","coordinates":[-7.5830209,33.5491635]},"properties":{"ID":"n2907752065","NATURE":"Bureau ou hôtel des postes","NOM":"Poste Casablanca Ksar Bhar","SOURCE":"OpenStreetMap","DATE_MAJ":"2016-05-28"}},
    {"type":"Feature","geometry":{"type":"Point","coordinates":[-7.5440000000000005,33.546]},"properties":{"ID":"n2907752066","NATURE":"Bureau ou hôtel des postes","NOM":"Casa Lahraouyine","SOURCE":"OpenStreetMap","DATE_MAJ":"2016-02-17"}},
    {"type":"Feature","geometry":{"type":"Point","coordinates":[-7.672903700000001,33.531799400000004]},"properties":{"ID":"n2907752067","NATURE":"Bureau ou hôtel des postes","NOM":"Casa Lissasfa","SOURCE":"OpenStreetMap","DATE_MAJ":"2018-05-28"}},
    {"type":"Feature","geometry":{"type":"Point","coordinates":[-7.636,33.580000000000005]},"properties":{"ID":"n2907752068","NATURE":"Bureau ou hôtel des postes","NOM":"Casa Maarif","SOURCE":"OpenStreetMap","DATE_MAJ":"2016-02-17"}},
    {"type":"Feature","geometry":{"type":"Point","coordinates":[-7.591577000000001,33.5405079]},"properties":{"ID":"n2907752069","NATURE":"Bureau ou hôtel des postes","NOM":"Casa Mcalla","SOURCE":"OpenStreetMap","DATE_MAJ":"2016-05-24"}},
    {"type":"Feature","geometry":{"type":"Point","coordinates":[-7.614000000000001,33.584]},"properties":{"ID":"n2907752070","NATURE":"Bureau ou hôtel des postes","NOM":"Casa Mers Sultan","SOURCE":"OpenStreetMap","DATE_MAJ":"2016-02-17"}},
    {"type":"Feature","geometry":{"type":"Point","coordinates":[-7.6338828,33.5567991]},"properties":{"ID":"n2907752071","NATURE":"Bureau ou hôtel des postes","NOM":"Casa Oasis","SOURCE":"OpenStreetMap","DATE_MAJ":"2016-05-20"}},
    {"type":"Feature","geometry":{"type":"Point","coordinates":[-7.671,33.561]},"properties":{"ID":"n2907752072","NATURE":"Bureau ou hôtel des postes","NOM":"Casa Oum Rabiaa","SOURCE":"OpenStreetMap","DATE_MAJ":"2016-02-17"}},
    {"type":"Feature","geometry":{"type":"Point","coordinates":[-7.618983900000001,33.5928458]},"properties":{"ID":"n2907752073","NATURE":"Bureau ou hôtel des postes","NOM":"Casablanca PPAL","SOURCE":"OpenStreetMap","DATE_MAJ":"2018-06-01"}},
    {"type":"Feature","geometry":{"type":"Point","coordinates":[-7.615,33.578]},"properties":{"ID":"n2907752074","NATURE":"Bureau ou hôtel des postes","NOM":"Casablanca Quartier Des Hopitaux","SOURCE":"OpenStreetMap","DATE_MAJ":"2017-04-12"}},
    {"type":"Feature","geometry":{"type":"Point","coordinates":[-7.582931,33.6010085]},"properties":{"ID":"n2907752075","NATURE":"Bureau ou hôtel des postes","NOM":"Casa Roches Noires","SOURCE":"OpenStreetMap","DATE_MAJ":"2017-12-09"}},
    {"type":"Feature","geometry":{"type":"Point","coordinates":[-7.5097971,33.6104901]},"properties":{"ID":"n2907752076","NATURE":"Bureau ou hôtel des postes","NOM":"Casablanca Sidi Bernoussi","SOURCE":"OpenStreetMap","DATE_MAJ":"2017-08-22"}},
    {"type":"Feature","geometry":{"type":"Point","coordinates":[-7.686000000000001,33.57]},"properties":{"ID":"n2907752077","NATURE":"Bureau ou hôtel des postes","NOM":"Casa Sidi El Khadir","SOURCE":"OpenStreetMap","DATE_MAJ":"2016-02-17"}},
    {"type":"Feature","geometry":{"type":"Point","coordinates":[-7.5461609,33.578955300000004]},"properties":{"ID":"n2907752078","NATURE":"Bureau ou hôtel des postes","NOM":"Casa Sidi Moumen","SOURCE":"OpenStreetMap","DATE_MAJ":"2017-09-01"}},
    {"type":"Feature","geometry":{"type":"Point","coordinates":[-7.574000000000001,33.56]},"properties":{"ID":"n2907752079","NATURE":"Bureau ou hôtel des postes","NOM":"Casa Sidi Othmane","SOURCE":"OpenStreetMap","DATE_MAJ":"2016-02-17"}},
    {"type":"Feature","geometry":{"type":"Point","coordinates":[-7.6290611,33.605769800000004]},"properties":{"ID":"n2907752080","NATURE":"Bureau ou hôtel des postes","NOM":"","SOURCE":"OpenStreetMap","DATE_MAJ":"2022-03-06"}},
    {"type":"Feature","geometry":{"type":"Point","coordinates":[-7.561000000000001,33.555]},"properties":{"ID":"n2907752081","NATURE":"Bureau ou hôtel des postes","NOM":"Casa Souk Joumla","SOURCE":"OpenStreetMap","DATE_MAJ":"2016-02-17"}},
    {"type":"Feature","geometry":{"type":"Point","coordinates":[-7.566764,33.5864503]},"properties":{"ID":"n2907752082","NATURE":"Bureau ou hôtel des postes","NOM":"Casa Takadoum","SOURCE":"OpenStreetMap","DATE_MAJ":"2017-01-02"}},
    {"type":"Feature","geometry":{"type":"Point","coordinates":[-7.489000000000001,33.601]},"properties":{"ID":"n2907752083","NATURE":"Bureau ou hôtel des postes","NOM":"Casablanca Ahl Loghlam","SOURCE":"OpenStreetMap","DATE_MAJ":"2016-02-17"}},
    {"type":"Feature","geometry":{"type":"Point","coordinates":[-7.531000000000001,33.603]},"properties":{"ID":"n2907752084","NATURE":"Bureau ou hôtel des postes","NOM":"Casablanca Ain Sbaa Al Hadika","SOURCE":"OpenStreetMap","DATE_MAJ":"2022-11-08"}},
    {"type":"Feature","geometry":{"type":"Point","coordinates":[-7.626,33.556000000000004]},"properties":{"ID":"n2907752085","NATURE":"Bureau ou hôtel des postes","NOM":"Casablanca Bachkou","SOURCE":"OpenStreetMap","DATE_MAJ":"2016-02-17"}},
    {"type":"Feature","geometry":{"type":"Point","coordinates":[-7.567,33.562000000000005]},"properties":{"ID":"n2907752086","NATURE":"Bureau ou hôtel des postes","NOM":"Casablanca Boulevard 10 Mars","SOURCE":"OpenStreetMap","DATE_MAJ":"2016-02-17"}},
    {"type":"Feature","geometry":{"type":"Point","coordinates":[-7.646000000000001,33.579]},"properties":{"ID":"n2907752087","NATURE":"Bureau ou hôtel des postes","NOM":"Casablanca Complexe Mohamed V","SOURCE":"OpenStreetMap","DATE_MAJ":"2016-02-17"}},
    {"type":"Feature","geometry":{"type":"Point","coordinates":[-7.594,33.596000000000004]},"properties":{"ID":"n2907752088","NATURE":"Bureau ou hôtel des postes","NOM":"Casablanca Emile Zola","SOURCE":"OpenStreetMap","DATE_MAJ":"2022-11-07"}},
    {"type":"Feature","geometry":{"type":"Point","coordinates":[-7.6578232,33.519160500000005]},"properties":{"ID":"n2907752089","NATURE":"Bureau ou hôtel des postes","NOM":"Poste Maroc Agence Ennassim","SOURCE":"OpenStreetMap","DATE_MAJ":"2020-01-09"}},
    {"type":"Feature","geometry":{"type":"Point","coordinates":[-7.6441623000000005,33.5697139]},"properties":{"ID":"n2907752090","NATURE":"Bureau ou hôtel des postes","NOM":"Casablanca Ghandi","SOURCE":"OpenStreetMap","DATE_MAJ":"2018-06-01"}},
    {"type":"Feature","geometry":{"type":"Point","coordinates":[-7.558000000000001,33.566]},"properties":{"ID":"n2907752091","NATURE":"Bureau ou hôtel des postes","NOM":"Casablanca Hay Essalama","SOURCE":"OpenStreetMap","DATE_MAJ":"2016-02-17"}},
    {"type":"Feature","geometry":{"type":"Point","coordinates":[-7.551,33.57]},"properties":{"ID":"n2907752092","NATURE":"Bureau ou hôtel des postes","NOM":"Casablanca Hay Sadri","SOURCE":"OpenStreetMap","DATE_MAJ":"2016-02-17"}},
    {"type":"Feature","geometry":{"type":"Point","coordinates":[-7.627948900000001,33.5908207]},"properties":{"ID":"n2907752093","NATURE":"Bureau ou hôtel des postes","NOM":"Casablanca Moussa Bnou Nouceir","SOURCE":"OpenStreetMap","DATE_MAJ":"2016-02-17"}},
    {"type":"Feature","geometry":{"type":"Point","coordinates":[-7.641000000000001,33.542]},"properties":{"ID":"n2907752095","NATURE":"Bureau ou hôtel des postes","NOM":"Casablanca Technopark","SOURCE":"OpenStreetMap","DATE_MAJ":"2016-02-17"}},
    {"type":"Feature","geometry":{"type":"Point","coordinates":[-15.930064300000002,23.7007237]},"properties":{"ID":"n2907752099","NATURE":"Bureau ou hôtel des postes","NOM":"Dakhla","SOURCE":"OpenStreetMap","DATE_MAJ":"2020-11-20"}},
    {"type":"Feature","geometry":{"type":"Point","coordinates":[-5.970351900000001,34.1892554]},"properties":{"ID":"n2907752100","NATURE":"Bureau ou hôtel des postes","NOM":"Dar Bel Amri","SOURCE":"OpenStreetMap","DATE_MAJ":"2020-11-20"}},
    {"type":"Feature","geometry":{"type":"Point","coordinates":[-7.817362200000001,33.516157500000006]},"properties":{"ID":"n2907752901","NATURE":"Bureau ou hôtel des postes","NOM":"Dar Bouazza","SOURCE":"OpenStreetMap","DATE_MAJ":"2016-02-17"}},
    {"type":"Feature","geometry":{"type":"Point","coordinates":[-6.094,34.42]},"properties":{"ID":"n2907752903","NATURE":"Bureau ou hôtel des postes","NOM":"Dar Gueddari","SOURCE":"OpenStreetMap","DATE_MAJ":"2020-11-20"}},
    {"type":"Feature","geometry":{"type":"Point","coordinates":[-3.3332482000000003,35.1181889]},"properties":{"ID":"n2907752904","NATURE":"Bureau ou hôtel des postes","NOM":"Dar El Kebdani","SOURCE":"OpenStreetMap","DATE_MAJ":"2022-04-19"}},
    {"type":"Feature","geometry":{"type":"Point","coordinates":[-6.902,32.312000000000005]},"properties":{"ID":"n2907752905","NATURE":"Bureau ou hôtel des postes","NOM":"Dar Ould Zidouh","SOURCE":"OpenStreetMap","DATE_MAJ":"2020-11-24"}},
    {"type":"Feature","geometry":{"type":"Point","coordinates":[-9.526900000000001,30.3637]},"properties":{"ID":"n2907752906","NATURE":"Bureau ou hôtel des postes","NOM":"Dcheira Hay Ilham","SOURCE":"OpenStreetMap","DATE_MAJ":"2016-02-17"}},
    {"type":"Feature","geometry":{"type":"Point","coordinates":[-3.0406425,33.9843591]},"properties":{"ID":"n2907752907","NATURE":"Bureau ou hôtel des postes","NOM":"Debdou","SOURCE":"OpenStreetMap","DATE_MAJ":"2020-09-30"}},
    {"type":"Feature","geometry":{"type":"Point","coordinates":[-7.0116054000000005,31.7553793]},"properties":{"ID":"n2907752908","NATURE":"Bureau ou hôtel des postes","NOM":"Demnate Imlil","SOURCE":"OpenStreetMap","DATE_MAJ":"2020-11-24"}},
    {"type":"Feature","geometry":{"type":"Point","coordinates":[-7.0046264,31.731607900000004]},"properties":{"ID":"n2907752909","NATURE":"Bureau ou hôtel des postes","NOM":"Demnate","SOURCE":"OpenStreetMap","DATE_MAJ":"2020-11-24"}},
    {"type":"Feature","geometry":{"type":"Point","coordinates":[-7.2634680000000005,32.2050295]},"properties":{"ID":"n2907752912","NATURE":"Bureau ou hôtel des postes","NOM":"El Aamria","SOURCE":"OpenStreetMap","DATE_MAJ":"2020-11-24"}},
    {"type":"Feature","geometry":{"type":"Point","coordinates":[-2.507,34.584]},"properties":{"ID":"n2907752914","NATURE":"Bureau ou hôtel des postes","NOM":"El Aioune","SOURCE":"OpenStreetMap","DATE_MAJ":"2016-02-15"}},
    {"type":"Feature","geometry":{"type":"Point","coordinates":[-7.2334933,33.2768438]},"properties":{"ID":"n2907752917","NATURE":"Bureau ou hôtel des postes","NOM":"El Gara الكارة","SOURCE":"OpenStreetMap","DATE_MAJ":"2021-10-10"}},
    {"type":"Feature","geometry":{"type":"Point","coordinates":[-6.7194912,32.9216787]},"properties":{"ID":"n2907752918","NATURE":"Bureau ou hôtel des postes","NOM":"El Gueffaf","SOURCE":"OpenStreetMap","DATE_MAJ":"2020-11-24"}},
    {"type":"Feature","geometry":{"type":"Point","coordinates":[-5.425000000000001,33.828]},"properties":{"ID":"n2907752919","NATURE":"Bureau ou hôtel des postes","NOM":"El Hadj Kaddour","SOURCE":"OpenStreetMap","DATE_MAJ":"2016-02-17"}},
    {"type":"Feature","geometry":{"type":"Point","coordinates":[-5.372658,33.6841528]},"properties":{"ID":"n2907752920","NATURE":"Bureau ou hôtel des postes","NOM":"El Hajeb","SOURCE":"OpenStreetMap","DATE_MAJ":"2018-06-02"}},
    {"type":"Feature","geometry":{"type":"Point","coordinates":[-5.4693022000000004,33.1746634]},"properties":{"ID":"n2907752921","NATURE":"Bureau ou hôtel des postes","NOM":"El Hammam","SOURCE":"OpenStreetMap","DATE_MAJ":"2020-11-24"}},
    {"type":"Feature","geometry":{"type":"Point","coordinates":[-8.528,33.242000000000004]},"properties":{"ID":"n2907752923","NATURE":"Bureau ou hôtel des postes","NOM":"El Jadida Essaada","SOURCE":"OpenStreetMap","DATE_MAJ":"2016-02-17"}},
    {"type":"Feature","geometry":{"type":"Point","coordinates":[-5.523962900000001,32.7417947]},"properties":{"ID":"n2907752924","NATURE":"Bureau ou hôtel des postes","NOM":"El Kebab","SOURCE":"OpenStreetMap","DATE_MAJ":"2020-11-24"}},
    {"type":"Feature","geometry":{"type":"Point","coordinates":[-4.4487094,33.444680600000005]},"properties":{"ID":"n2907752929","NATURE":"Bureau ou hôtel des postes","NOM":"El Mers","SOURCE":"OpenStreetMap","DATE_MAJ":"2016-03-08"}},
    {"type":"Feature","geometry":{"type":"Point","coordinates":[-11.3319907,28.498112900000002]},"properties":{"ID":"n2907752930","NATURE":"Bureau ou hôtel des postes","NOM":"El Ouatia","SOURCE":"OpenStreetMap","DATE_MAJ":"2023-02-05"}},
    {"type":"Feature","geometry":{"type":"Point","coordinates":[-9.7714868,31.5139771]},"properties":{"ID":"n2907752934","NATURE":"Bureau ou hôtel des postes","NOM":"Essaouira Scala","SOURCE":"OpenStreetMap","DATE_MAJ":"2022-09-16"}},
    {"type":"Feature","geometry":{"type":"Point","coordinates":[-11.671384600000001,26.731399300000003]},"properties":{"ID":"n2907752935","NATURE":"Bureau ou hôtel des postes","NOM":"Es-semara Echahid","SOURCE":"OpenStreetMap","DATE_MAJ":"2018-06-21"}},
    {"type":"Feature","geometry":{"type":"Point","coordinates":[-11.67,26.740000000000002]},"properties":{"ID":"n2907752936","NATURE":"Bureau ou hôtel des postes","NOM":"Es-semara","SOURCE":"OpenStreetMap","DATE_MAJ":"2018-06-21"}},
    {"type":"Feature","geometry":{"type":"Point","coordinates":[-7.3068973,33.5682496]},"properties":{"ID":"n2907752938","NATURE":"Bureau ou hôtel des postes","NOM":"Fedalate","SOURCE":"OpenStreetMap","DATE_MAJ":"2021-01-27"}},
    {"type":"Feature","geometry":{"type":"Point","coordinates":[-4.969,34.019000000000005]},"properties":{"ID":"n2907752942","NATURE":"Bureau ou hôtel des postes","NOM":"Fes Al Qods","SOURCE":"OpenStreetMap","DATE_MAJ":"2016-03-08"}},
    {"type":"Feature","geometry":{"type":"Point","coordinates":[-4.9941658,34.032193500000005]},"properties":{"ID":"n2907752944","NATURE":"Bureau ou hôtel des postes","NOM":"Fes Atlas","SOURCE":"OpenStreetMap","DATE_MAJ":"2018-02-10"}},
    {"type":"Feature","geometry":{"type":"Point","coordinates":[-4.9990000000000006,34.065000000000005]},"properties":{"ID":"n2907752945","NATURE":"Bureau ou hôtel des postes","NOM":"Fes Ben Debbab","SOURCE":"OpenStreetMap","DATE_MAJ":"2016-02-17"}},
    {"type":"Feature","geometry":{"type":"Point","coordinates":[-5.019,34.041000000000004]},"properties":{"ID":"n2907752946","NATURE":"Bureau ou hôtel des postes","NOM":"Fes Dokkarate","SOURCE":"OpenStreetMap","DATE_MAJ":"2018-09-19"}},
    {"type":"Feature","geometry":{"type":"Point","coordinates":[-4.9737103000000005,34.065515600000005]},"properties":{"ID":"n2907752947","NATURE":"Bureau ou hôtel des postes","NOM":"Fes El Karaouyine","SOURCE":"OpenStreetMap","DATE_MAJ":"2017-04-15"}},
    {"type":"Feature","geometry":{"type":"Point","coordinates":[-5.023000000000001,34.029]},"properties":{"ID":"n2907752948","NATURE":"Bureau ou hôtel des postes","NOM":"Fes Hay Tarik","SOURCE":"OpenStreetMap","DATE_MAJ":"2017-03-15"}},
    {"type":"Feature","geometry":{"type":"Point","coordinates":[-4.966,34.069]},"properties":{"ID":"n2907752949","NATURE":"Bureau ou hôtel des postes","NOM":"Fes Jnanate","SOURCE":"OpenStreetMap","DATE_MAJ":"2016-02-17"}},
    {"type":"Feature","geometry":{"type":"Point","coordinates":[-4.986509600000001,34.068084]},"properties":{"ID":"n2907752950","NATURE":"Bureau ou hôtel des postes","NOM":"Fes Les Merinides","SOURCE":"OpenStreetMap","DATE_MAJ":"2017-10-28"}},
    {"type":"Feature","geometry":{"type":"Point","coordinates":[-4.956570800000001,34.0592267]},"properties":{"ID":"n2907752951","NATURE":"Bureau ou hôtel des postes","NOM":"Fes Louizate","SOURCE":"OpenStreetMap","DATE_MAJ":"2018-07-09"}},
    {"type":"Feature","geometry":{"type":"Point","coordinates":[-4.9871876,34.0270279]},"properties":{"ID":"n2907752953","NATURE":"Bureau ou hôtel des postes","NOM":"Fes Sidi Brahim","SOURCE":"OpenStreetMap","DATE_MAJ":"2017-08-22"}},
    {"type":"Feature","geometry":{"type":"Point","coordinates":[-5.0325215000000005,34.058453300000004]},"properties":{"ID":"n2907752954","NATURE":"Bureau ou hôtel des postes","NOM":"Fes Soundouss","SOURCE":"OpenStreetMap","DATE_MAJ":"2021-03-15"}},
    {"type":"Feature","geometry":{"type":"Point","coordinates":[-6.984801200000001,31.961516000000003]},"properties":{"ID":"n2907752961","NATURE":"Bureau ou hôtel des postes","NOM":"Foum Jemaa","SOURCE":"OpenStreetMap","DATE_MAJ":"2020-11-24"}},
    {"type":"Feature","geometry":{"type":"Point","coordinates":[-6.873200000000001,30.085400000000003]},"properties":{"ID":"n2907752963","NATURE":"Bureau ou hôtel des postes","NOM":"Foum Zguid","SOURCE":"OpenStreetMap","DATE_MAJ":"2016-02-17"}},
    {"type":"Feature","geometry":{"type":"Point","coordinates":[-6.6870494,32.5048547]},"properties":{"ID":"n2907752964","NATURE":"Bureau ou hôtel des postes","NOM":"Fquih Ben Saleh Gare","SOURCE":"OpenStreetMap","DATE_MAJ":"2020-11-24"}},
    {"type":"Feature","geometry":{"type":"Point","coordinates":[-4.9541411,31.691629400000004]},"properties":{"ID":"n2907752965","NATURE":"Bureau ou hôtel des postes","NOM":"كلميمة","SOURCE":"OpenStreetMap","DATE_MAJ":"2022-01-20"}},
    {"type":"Feature","geometry":{"type":"Point","coordinates":[-4.075,32.339]},"properties":{"ID":"n2907752966","NATURE":"Bureau ou hôtel des postes","NOM":"Gourrama","SOURCE":"OpenStreetMap","DATE_MAJ":"2020-11-23"}},
    {"type":"Feature","geometry":{"type":"Point","coordinates":[-10.048,28.998]},"properties":{"ID":"n2907752967","NATURE":"Bureau ou hôtel des postes","NOM":"Guelmim Porte Du Sahara","SOURCE":"OpenStreetMap","DATE_MAJ":"2016-02-17"}},
    {"type":"Feature","geometry":{"type":"Point","coordinates":[-3.353,34.215]},"properties":{"ID":"n2907752968","NATURE":"Bureau ou hôtel des postes","NOM":"Guercif Nougd","SOURCE":"OpenStreetMap","DATE_MAJ":"2016-02-17"}},
    {"type":"Feature","geometry":{"type":"Point","coordinates":[-3.3360000000000003,34.226]},"properties":{"ID":"n2907752969","NATURE":"Bureau ou hôtel des postes","NOM":"Guercif","SOURCE":"OpenStreetMap","DATE_MAJ":"2016-02-17"}},
    {"type":"Feature","geometry":{"type":"Point","coordinates":[-4.3640153,32.241490500000005]},"properties":{"ID":"n2907752970","NATURE":"Bureau ou hôtel des postes","NOM":"Guers Tiallaline","SOURCE":"OpenStreetMap","DATE_MAJ":"2020-11-23"}},
    {"type":"Feature","geometry":{"type":"Point","coordinates":[-9.434000000000001,30.058000000000003]},"properties":{"ID":"n2907752973","NATURE":"Bureau ou hôtel des postes","NOM":"Had Ait Belfaa","SOURCE":"OpenStreetMap","DATE_MAJ":"2016-02-17"}},
    {"type":"Feature","geometry":{"type":"Point","coordinates":[-6.633,33.694]},"properties":{"ID":"n2907752976","NATURE":"Bureau ou hôtel des postes","NOM":"Had Brachoua","SOURCE":"OpenStreetMap","DATE_MAJ":"2020-11-20"}},
    {"type":"Feature","geometry":{"type":"Point","coordinates":[-6.535,32.453]},"properties":{"ID":"n2907752977","NATURE":"Bureau ou hôtel des postes","NOM":"Had Bradia","SOURCE":"OpenStreetMap","DATE_MAJ":"2020-11-24"}},
    {"type":"Feature","geometry":{"type":"Point","coordinates":[-9.5376399,31.5776262]},"properties":{"ID":"n2907752978","NATURE":"Bureau ou hôtel des postes","NOM":"Had Draa","SOURCE":"OpenStreetMap","DATE_MAJ":"2020-11-24"}},
    {"type":"Feature","geometry":{"type":"Point","coordinates":[-9.135426200000001,32.4388725]},"properties":{"ID":"n2907752979","NATURE":"Bureau ou hôtel des postes","NOM":"Had Herrara","SOURCE":"OpenStreetMap","DATE_MAJ":"2020-11-24"}},
    {"type":"Feature","geometry":{"type":"Point","coordinates":[-5.722273100000001,34.6207289]},"properties":{"ID":"n2907752980","NATURE":"Bureau ou hôtel des postes","NOM":"Had Kourt","SOURCE":"OpenStreetMap","DATE_MAJ":"2020-11-20"}},
    {"type":"Feature","geometry":{"type":"Point","coordinates":[-4.322,34.289]},"properties":{"ID":"n2907752982","NATURE":"Bureau ou hôtel des postes","NOM":"Had Oulad Zbair","SOURCE":"OpenStreetMap","DATE_MAJ":"2016-02-17"}},
    {"type":"Feature","geometry":{"type":"Point","coordinates":[-7.853032400000001,33.4224673]},"properties":{"ID":"n2907752985","NATURE":"Bureau ou hôtel des postes","NOM":"Had Soualem","SOURCE":"OpenStreetMap","DATE_MAJ":"2020-07-12"}},
    {"type":"Feature","geometry":{"type":"Point","coordinates":[-2.8774774,34.840023800000004]},"properties":{"ID":"n2907752987","NATURE":"Bureau ou hôtel des postes","NOM":"Hassi Berkane","SOURCE":"OpenStreetMap","DATE_MAJ":"2018-09-28"}},
    {"type":"Feature","geometry":{"type":"Point","coordinates":[-5.107616200000001,33.528693000000004]},"properties":{"ID":"n2907752993","NATURE":"Bureau ou hôtel des postes","NOM":"Ifrane","SOURCE":"OpenStreetMap","DATE_MAJ":"2022-08-24"}},
    {"type":"Feature","geometry":{"type":"Point","coordinates":[-7.4224361000000005,31.2296212]},"properties":{"ID":"n2907752994","NATURE":"Bureau ou hôtel des postes","NOM":"Ighrem Nougdal","SOURCE":"OpenStreetMap","DATE_MAJ":"2020-11-24"}},
    {"type":"Feature","geometry":{"type":"Point","coordinates":[-8.45036,30.6160709]},"properties":{"ID":"n2907752995","NATURE":"Bureau ou hôtel des postes","NOM":"Igoudar M'Nabha","SOURCE":"OpenStreetMap","DATE_MAJ":"2016-02-17"}},
    {"type":"Feature","geometry":{"type":"Point","coordinates":[-3.961176,35.0729321]},"properties":{"ID":"n2907753703","NATURE":"Bureau ou hôtel des postes","NOM":"Imrabten","SOURCE":"OpenStreetMap","DATE_MAJ":"2018-06-22"}},
    {"type":"Feature","geometry":{"type":"Point","coordinates":[-8.842854500000001,32.3489166]},"properties":{"ID":"n2907753711","NATURE":"Bureau ou hôtel des postes","NOM":"Jemaa Sehaim","SOURCE":"OpenStreetMap","DATE_MAJ":"2020-11-24"}},
    {"type":"Feature","geometry":{"type":"Point","coordinates":[-2.156,34.312000000000005]},"properties":{"ID":"n2907753712","NATURE":"Bureau ou hôtel des postes","NOM":"Jerada","SOURCE":"OpenStreetMap","DATE_MAJ":"2016-02-15"}},
    {"type":"Feature","geometry":{"type":"Point","coordinates":[-4.4,31.490000000000002]},"properties":{"ID":"n2907753714","NATURE":"Bureau ou hôtel des postes","NOM":"Jorf","SOURCE":"OpenStreetMap","DATE_MAJ":"2020-11-23"}},
    {"type":"Feature","geometry":{"type":"Point","coordinates":[-5.9615923,32.9140047]},"properties":{"ID":"n2907753715","NATURE":"Bureau ou hôtel des postes","NOM":"Kaf Nsour","SOURCE":"OpenStreetMap","DATE_MAJ":"2020-11-24"}},
    {"type":"Feature","geometry":{"type":"Point","coordinates":[-6.5611246,34.259111100000005]},"properties":{"ID":"n2907753726","NATURE":"Bureau ou hôtel des postes","NOM":"Kenitra Nouvelle Medina","SOURCE":"OpenStreetMap","DATE_MAJ":"2022-09-15"}},
    {"type":"Feature","geometry":{"type":"Point","coordinates":[-6.6000000000000005,34.273]},"properties":{"ID":"n2907753729","NATURE":"Bureau ou hôtel des postes","NOM":"Kenitra Taybiya","SOURCE":"OpenStreetMap","DATE_MAJ":"2020-11-20"}},
    {"type":"Feature","geometry":{"type":"Point","coordinates":[-5.3209594000000004,32.8001857]},"properties":{"ID":"n2907753731","NATURE":"Bureau ou hôtel des postes","NOM":"Kerrouchen","SOURCE":"OpenStreetMap","DATE_MAJ":"2020-11-24"}},
    {"type":"Feature","geometry":{"type":"Point","coordinates":[-8.183182,31.866368200000004]},"properties":{"ID":"n2907753732","NATURE":"Bureau ou hôtel des postes","NOM":"Kettara","SOURCE":"OpenStreetMap","DATE_MAJ":"2020-11-24"}},
    {"type":"Feature","geometry":{"type":"Point","coordinates":[-6.079000000000001,35.255]},"properties":{"ID":"n2907753737","NATURE":"Bureau ou hôtel des postes","NOM":"Khemis Sahel","SOURCE":"OpenStreetMap","DATE_MAJ":"2020-08-22"}},
    {"type":"Feature","geometry":{"type":"Point","coordinates":[-6.069,33.839]},"properties":{"ID":"n2907753738","NATURE":"Bureau ou hôtel des postes","NOM":"Khemisset Essaada","SOURCE":"OpenStreetMap","DATE_MAJ":"2020-11-20"}},
    {"type":"Feature","geometry":{"type":"Point","coordinates":[-6.0669915,33.8248592]},"properties":{"ID":"n2907753739","NATURE":"Bureau ou hôtel des postes","NOM":"Khemisset Sidi Ghrib","SOURCE":"OpenStreetMap","DATE_MAJ":"2020-11-20"}},
    {"type":"Feature","geometry":{"type":"Point","coordinates":[-5.687,34.438]},"properties":{"ID":"n2907753740","NATURE":"Bureau ou hôtel des postes","NOM":"Khenichet","SOURCE":"OpenStreetMap","DATE_MAJ":"2020-11-20"}},
    {"type":"Feature","geometry":{"type":"Point","coordinates":[-5.6786506,32.943952200000005]},"properties":{"ID":"n2907753742","NATURE":"Bureau ou hôtel des postes","NOM":"Khenifra Boufouloussen","SOURCE":"OpenStreetMap","DATE_MAJ":"2020-11-24"}},
    {"type":"Feature","geometry":{"type":"Point","coordinates":[-5.669239,32.9300633]},"properties":{"ID":"n2907753743","NATURE":"Bureau ou hôtel des postes","NOM":"Khenifra Oued Ed-Dahab","SOURCE":"OpenStreetMap","DATE_MAJ":"2020-11-24"}},
    {"type":"Feature","geometry":{"type":"Point","coordinates":[-9.008619300000001,29.861461400000003]},"properties":{"ID":"n2907753745","NATURE":"Bureau ou hôtel des postes","NOM":"Khmis Ida Ou Gnidif","SOURCE":"OpenStreetMap","DATE_MAJ":"2020-12-15"}},
    {"type":"Feature","geometry":{"type":"Point","coordinates":[-6.9302093000000005,32.885424300000004]},"properties":{"ID":"n2907753747","NATURE":"Bureau ou hôtel des postes","NOM":"Khouribga Al Qods","SOURCE":"OpenStreetMap","DATE_MAJ":"2020-11-24"}},
    {"type":"Feature","geometry":{"type":"Point","coordinates":[-6.915446500000001,32.8879964]},"properties":{"ID":"n2907753748","NATURE":"Bureau ou hôtel des postes","NOM":"Khouribga Hay Al Fath","SOURCE":"OpenStreetMap","DATE_MAJ":"2020-11-24"}},
    {"type":"Feature","geometry":{"type":"Point","coordinates":[-6.9,32.877]},"properties":{"ID":"n2907753749","NATURE":"Bureau ou hôtel des postes","NOM":"Khouribga Hay Essalam","SOURCE":"OpenStreetMap","DATE_MAJ":"2020-11-24"}},
    {"type":"Feature","geometry":{"type":"Point","coordinates":[-6.905,32.886]},"properties":{"ID":"n2907753750","NATURE":"Bureau ou hôtel des postes","NOM":"Khouribga Nahda","SOURCE":"OpenStreetMap","DATE_MAJ":"2020-11-24"}},
    {"type":"Feature","geometry":{"type":"Point","coordinates":[-4.3986707,32.8300655]},"properties":{"ID":"n2907753751","NATURE":"Bureau ou hôtel des postes","NOM":"La Poste","SOURCE":"OpenStreetMap","DATE_MAJ":"2022-09-11"}},
    {"type":"Feature","geometry":{"type":"Point","coordinates":[-5.9084493,35.012605400000005]},"properties":{"ID":"n2907753752","NATURE":"Bureau ou hôtel des postes","NOM":"Ksar El Kebir Hay Essalam","SOURCE":"OpenStreetMap","DATE_MAJ":"2019-05-12"}},
    {"type":"Feature","geometry":{"type":"Point","coordinates":[-5.5614422,35.842969000000004]},"properties":{"ID":"n2907753754","NATURE":"Bureau ou hôtel des postes","NOM":"Ksar Sghir","SOURCE":"OpenStreetMap","DATE_MAJ":"2016-02-17"}},
    {"type":"Feature","geometry":{"type":"Point","coordinates":[-13.170000000000002,27.132]},"properties":{"ID":"n2907753756","NATURE":"Bureau ou hôtel des postes","NOM":"Laayoune Al Amal","SOURCE":"OpenStreetMap","DATE_MAJ":"2020-11-20"}},
    {"type":"Feature","geometry":{"type":"Point","coordinates":[-13.4107532,27.0945274]},"properties":{"ID":"n2907753762","NATURE":"Bureau ou hôtel des postes","NOM":"Laayoune Port","SOURCE":"OpenStreetMap","DATE_MAJ":"2022-09-15"}},
    {"type":"Feature","geometry":{"type":"Point","coordinates":[-13.198,27.154000000000003]},"properties":{"ID":"n2907753763","NATURE":"Bureau ou hôtel des postes","NOM":"Laâyoune Quartier Administratif","SOURCE":"OpenStreetMap","DATE_MAJ":"2022-12-11"}},
    {"type":"Feature","geometry":{"type":"Point","coordinates":[-13.1980407,27.131998600000003]},"properties":{"ID":"n2907753764","NATURE":"Bureau ou hôtel des postes","NOM":"Laâyoune Rhiba","SOURCE":"OpenStreetMap","DATE_MAJ":"2022-12-11"}},
    {"type":"Feature","geometry":{"type":"Point","coordinates":[-13.1993659,27.149607500000002]},"properties":{"ID":"n2907753765","NATURE":"Bureau ou hôtel des postes","NOM":"Laâyoune Ville","SOURCE":"OpenStreetMap","DATE_MAJ":"2022-12-11"}},
    {"type":"Feature","geometry":{"type":"Point","coordinates":[-8.131438000000001,31.3595736]},"properties":{"ID":"n2907753767","NATURE":"Bureau ou hôtel des postes","NOM":"Lalla Takarkouste","SOURCE":"OpenStreetMap","DATE_MAJ":"2020-11-24"}},
    {"type":"Feature","geometry":{"type":"Point","coordinates":[-3.2789899,33.9919834]},"properties":{"ID":"n2907753771","NATURE":"Bureau ou hôtel des postes","NOM":"Mahirija","SOURCE":"OpenStreetMap","DATE_MAJ":"2016-02-17"}},
    {"type":"Feature","geometry":{"type":"Point","coordinates":[-7.9910000000000005,31.651000000000003]},"properties":{"ID":"n2907753779","NATURE":"Bureau ou hôtel des postes","NOM":"Marrakech Daoudiate","SOURCE":"OpenStreetMap","DATE_MAJ":"2020-11-24"}},
    {"type":"Feature","geometry":{"type":"Point","coordinates":[-7.997000000000001,31.651000000000003]},"properties":{"ID":"n2907753784","NATURE":"Bureau ou hôtel des postes","NOM":"Marrakech Hay Mohammadi","SOURCE":"OpenStreetMap","DATE_MAJ":"2020-11-24"}},
    {"type":"Feature","geometry":{"type":"Point","coordinates":[-8.032,31.593000000000004]},"properties":{"ID":"n2907753785","NATURE":"Bureau ou hôtel des postes","NOM":"Marrakech Mhamid","SOURCE":"OpenStreetMap","DATE_MAJ":"2020-11-24"}},
    {"type":"Feature","geometry":{"type":"Point","coordinates":[-8.0091851,31.6327077]},"properties":{"ID":"n2907753787","NATURE":"Bureau ou hôtel des postes","NOM":"La Poste Principale","SOURCE":"OpenStreetMap","DATE_MAJ":"2020-11-24"}},
    {"type":"Feature","geometry":{"type":"Point","coordinates":[-8.047,31.671000000000003]},"properties":{"ID":"n2907753789","NATURE":"Bureau ou hôtel des postes","NOM":"Marrakech Sidi Ghanem","SOURCE":"OpenStreetMap","DATE_MAJ":"2020-11-24"}},
    {"type":"Feature","geometry":{"type":"Point","coordinates":[-7.972,31.614]},"properties":{"ID":"n2907753790","NATURE":"Bureau ou hôtel des postes","NOM":"Marrakech Sidi Youssef Ben Ali","SOURCE":"OpenStreetMap","DATE_MAJ":"2020-11-24"}},
    {"type":"Feature","geometry":{"type":"Point","coordinates":[-5.2770482,35.6174908]},"properties":{"ID":"n2907753791","NATURE":"Bureau ou hôtel des postes","NOM":"Martil","SOURCE":"OpenStreetMap","DATE_MAJ":"2019-10-19"}},
    {"type":"Feature","geometry":{"type":"Point","coordinates":[-4.5511286,34.0995092]},"properties":{"ID":"n2907753793","NATURE":"Bureau ou hôtel des postes","NOM":"Matmata","SOURCE":"OpenStreetMap","DATE_MAJ":"2018-09-26"}},
    {"type":"Feature","geometry":{"type":"Point","coordinates":[-5.546,33.881]},"properties":{"ID":"n2907753796","NATURE":"Bureau ou hôtel des postes","NOM":"Meknes Agdal","SOURCE":"OpenStreetMap","DATE_MAJ":"2016-02-17"}},
    {"type":"Feature","geometry":{"type":"Point","coordinates":[-5.578,33.867000000000004]},"properties":{"ID":"n2907753797","NATURE":"Bureau ou hôtel des postes","NOM":"Meknes Al Mansour","SOURCE":"OpenStreetMap","DATE_MAJ":"2016-02-17"}},
    {"type":"Feature","geometry":{"type":"Point","coordinates":[-5.580543400000001,33.8972702]},"properties":{"ID":"n2907753798","NATURE":"Bureau ou hôtel des postes","NOM":"Meknes Al Wifak","SOURCE":"OpenStreetMap","DATE_MAJ":"2016-02-17"}},
    {"type":"Feature","geometry":{"type":"Point","coordinates":[-5.5498059,33.8978648]},"properties":{"ID":"n2907754304","NATURE":"Bureau ou hôtel des postes","NOM":"Meknes PPAL","SOURCE":"OpenStreetMap","DATE_MAJ":"2020-02-06"}},
    {"type":"Feature","geometry":{"type":"Point","coordinates":[-5.6317687,35.737060500000005]},"properties":{"ID":"n2907754308","NATURE":"Bureau ou hôtel des postes","NOM":"Malloussa","SOURCE":"OpenStreetMap","DATE_MAJ":"2021-07-11"}},
    {"type":"Feature","geometry":{"type":"Point","coordinates":[-10.111864,29.264174200000003]},"properties":{"ID":"n2907754311","NATURE":"Bureau ou hôtel des postes","NOM":"Mesti","SOURCE":"OpenStreetMap","DATE_MAJ":"2016-02-17"}},
    {"type":"Feature","geometry":{"type":"Point","coordinates":[-5.719818500000001,29.8249017]},"properties":{"ID":"n2907754314","NATURE":"Bureau ou hôtel des postes","NOM":"Mhamid","SOURCE":"OpenStreetMap","DATE_MAJ":"2020-11-23"}},
    {"type":"Feature","geometry":{"type":"Point","coordinates":[-3.0013541000000004,35.0112976]},"properties":{"ID":"n2907754320","NATURE":"Bureau ou hôtel des postes","NOM":"Monte Arrui","SOURCE":"OpenStreetMap","DATE_MAJ":"2016-02-15"}},
    {"type":"Feature","geometry":{"type":"Point","coordinates":[-8.586,33.195]},"properties":{"ID":"n2907754322","NATURE":"Bureau ou hôtel des postes","NOM":"Moulay Abdellah","SOURCE":"OpenStreetMap","DATE_MAJ":"2016-02-17"}},
    {"type":"Feature","geometry":{"type":"Point","coordinates":[-6.199000000000001,33.226]},"properties":{"ID":"n2907754323","NATURE":"Bureau ou hôtel des postes","NOM":"Moulay Bouazza","SOURCE":"OpenStreetMap","DATE_MAJ":"2020-11-24"}},
    {"type":"Feature","geometry":{"type":"Point","coordinates":[-5.1773973,34.088394900000004]},"properties":{"ID":"n2907754324","NATURE":"Bureau ou hôtel des postes","NOM":"Moulay Yacoub","SOURCE":"OpenStreetMap","DATE_MAJ":"2016-02-17"}},
    {"type":"Feature","geometry":{"type":"Point","coordinates":[-5.5589247,33.1687795]},"properties":{"ID":"n2907754325","NATURE":"Bureau ou hôtel des postes","NOM":"Mrirt Boulachfar","SOURCE":"OpenStreetMap","DATE_MAJ":"2020-11-24"}},
    {"type":"Feature","geometry":{"type":"Point","coordinates":[-5.566000000000001,33.161]},"properties":{"ID":"n2907754326","NATURE":"Bureau ou hôtel des postes","NOM":"Mrirt","SOURCE":"OpenStreetMap","DATE_MAJ":"2020-11-24"}},
    {"type":"Feature","geometry":{"type":"Point","coordinates":[-5.8178936000000006,31.696245]},"properties":{"ID":"n2907754327","NATURE":"Bureau ou hôtel des postes","NOM":"Msemrir","SOURCE":"OpenStreetMap","DATE_MAJ":"2020-11-23"}},
    {"type":"Feature","geometry":{"type":"Point","coordinates":[-2.926,35.173]},"properties":{"ID":"n2907754328","NATURE":"Bureau ou hôtel des postes","NOM":"Nador Laari Cheikh","SOURCE":"OpenStreetMap","DATE_MAJ":"2017-04-22"}},
    {"type":"Feature","geometry":{"type":"Point","coordinates":[-2.9360000000000004,35.168]},"properties":{"ID":"n2907754329","NATURE":"Bureau ou hôtel des postes","NOM":"Nador Oulad Mimoun","SOURCE":"OpenStreetMap","DATE_MAJ":"2016-02-17"}},
    {"type":"Feature","geometry":{"type":"Point","coordinates":[-2.9360000000000004,35.182]},"properties":{"ID":"n2907754330","NATURE":"Bureau ou hôtel des postes","NOM":"Nador Ouled Boutayeb","SOURCE":"OpenStreetMap","DATE_MAJ":"2016-02-17"}},
    {"type":"Feature","geometry":{"type":"Point","coordinates":[-2.9250000000000003,35.176]},"properties":{"ID":"n2907754331","NATURE":"Bureau ou hôtel des postes","NOM":"Nador","SOURCE":"OpenStreetMap","DATE_MAJ":"2022-04-20"}},
    {"type":"Feature","geometry":{"type":"Point","coordinates":[-2.2240759000000003,34.608024]},"properties":{"ID":"n2907754332","NATURE":"Bureau ou hôtel des postes","NOM":"Naima","SOURCE":"OpenStreetMap","DATE_MAJ":"2016-02-15"}},
    {"type":"Feature","geometry":{"type":"Point","coordinates":[-5.8642839,30.8714276]},"properties":{"ID":"n2907754333","NATURE":"Bureau ou hôtel des postes","NOM":"NKob","SOURCE":"OpenStreetMap","DATE_MAJ":"2020-11-23"}},
    {"type":"Feature","geometry":{"type":"Point","coordinates":[-7.6206668,33.3758907]},"properties":{"ID":"n2907754334","NATURE":"Bureau ou hôtel des postes","NOM":"Nouaceur","SOURCE":"OpenStreetMap","DATE_MAJ":"2022-01-20"}},
    {"type":"Feature","geometry":{"type":"Point","coordinates":[-9.033892100000001,32.7333981]},"properties":{"ID":"n2907754337","NATURE":"Bureau ou hôtel des postes","NOM":"Oualidia","SOURCE":"OpenStreetMap","DATE_MAJ":"2022-09-17"}},
    {"type":"Feature","geometry":{"type":"Point","coordinates":[-6.3551896,32.157407500000005]},"properties":{"ID":"n2907754338","NATURE":"Bureau ou hôtel des postes","NOM":"Ouaouizarht","SOURCE":"OpenStreetMap","DATE_MAJ":"2020-11-24"}},
    {"type":"Feature","geometry":{"type":"Point","coordinates":[-6.8940497,30.9231148]},"properties":{"ID":"n2907754340","NATURE":"Bureau ou hôtel des postes","NOM":"Ouarzazate Taourirt","SOURCE":"OpenStreetMap","DATE_MAJ":"2020-11-23"}},
    {"type":"Feature","geometry":{"type":"Point","coordinates":[-6.9294150000000005,30.9237289]},"properties":{"ID":"n2907754342","NATURE":"Bureau ou hôtel des postes","NOM":"Ouarzazate Tassoumaate","SOURCE":"OpenStreetMap","DATE_MAJ":"2022-08-23"}},
    {"type":"Feature","geometry":{"type":"Point","coordinates":[-1.9080431000000002,34.6710337]},"properties":{"ID":"n2907754351","NATURE":"Bureau ou hôtel des postes","NOM":"Oujda Samara","SOURCE":"OpenStreetMap","DATE_MAJ":"2016-02-15"}},
    {"type":"Feature","geometry":{"type":"Point","coordinates":[-1.9298122000000002,34.6794981]},"properties":{"ID":"n2907754364","NATURE":"Bureau ou hôtel des postes","NOM":"Oujda Mir Ali","SOURCE":"OpenStreetMap","DATE_MAJ":"2016-02-15"}},
    {"type":"Feature","geometry":{"type":"Point","coordinates":[-1.8994718000000002,34.6995401]},"properties":{"ID":"n2907754368","NATURE":"Bureau ou hôtel des postes","NOM":"Oujda Quartier Industriel","SOURCE":"OpenStreetMap","DATE_MAJ":"2016-02-15"}},
    {"type":"Feature","geometry":{"type":"Point","coordinates":[-1.9168056000000002,34.6972492]},"properties":{"ID":"n2907754370","NATURE":"Bureau ou hôtel des postes","NOM":"Oujda Takkadoum","SOURCE":"OpenStreetMap","DATE_MAJ":"2018-05-14"}},
    {"type":"Feature","geometry":{"type":"Point","coordinates":[-7.931494300000001,33.1147464]},"properties":{"ID":"n2907754371","NATURE":"Bureau ou hôtel des postes","NOM":"Oulad Abbou","SOURCE":"OpenStreetMap","DATE_MAJ":"2016-02-17"}},
    {"type":"Feature","geometry":{"type":"Point","coordinates":[-3.9691547000000003,33.461798300000005]},"properties":{"ID":"n2907754375","NATURE":"Bureau ou hôtel des postes","NOM":"Ouled Ali","SOURCE":"OpenStreetMap","DATE_MAJ":"2016-02-17"}},
    {"type":"Feature","geometry":{"type":"Point","coordinates":[-8.5168253,32.3941838]},"properties":{"ID":"n2907754376","NATURE":"Bureau ou hôtel des postes","NOM":"Ouled Amrane","SOURCE":"OpenStreetMap","DATE_MAJ":"2020-11-24"}},
    {"type":"Feature","geometry":{"type":"Point","coordinates":[-6.0024369,33.4236347]},"properties":{"ID":"n2907754382","NATURE":"Bureau ou hôtel des postes","NOM":"Oulmes","SOURCE":"OpenStreetMap","DATE_MAJ":"2020-07-08"}},
    {"type":"Feature","geometry":{"type":"Point","coordinates":[-4.9659263000000005,34.5350503]},"properties":{"ID":"n2907754383","NATURE":"Bureau ou hôtel des postes","NOM":"Ourtzarh","SOURCE":"OpenStreetMap","DATE_MAJ":"2016-02-17"}},
    {"type":"Feature","geometry":{"type":"Point","coordinates":[-3.6966239,33.338502600000005]},"properties":{"ID":"n2907754384","NATURE":"Bureau ou hôtel des postes","NOM":"Outat El Haj","SOURCE":"OpenStreetMap","DATE_MAJ":"2016-02-17"}},
    {"type":"Feature","geometry":{"type":"Point","coordinates":[-6.892,33.973]},"properties":{"ID":"n2907754386","NATURE":"Bureau ou hôtel des postes","NOM":"Rabat Al Manal","SOURCE":"OpenStreetMap","DATE_MAJ":"2020-11-20"}},
    {"type":"Feature","geometry":{"type":"Point","coordinates":[-6.887169,33.9771068]},"properties":{"ID":"n2907754387","NATURE":"Bureau ou hôtel des postes","NOM":"وكالة المسيرة الرباط","SOURCE":"OpenStreetMap","DATE_MAJ":"2022-06-27"}},
    {"type":"Feature","geometry":{"type":"Point","coordinates":[-6.811000000000001,33.993]},"properties":{"ID":"n2907754388","NATURE":"Bureau ou hôtel des postes","NOM":"Rabat Al-Inbiat","SOURCE":"OpenStreetMap","DATE_MAJ":"2020-11-20"}},
    {"type":"Feature","geometry":{"type":"Point","coordinates":[-6.828,34.010000000000005]},"properties":{"ID":"n2907754390","NATURE":"Bureau ou hôtel des postes","NOM":"Rabat Chellah","SOURCE":"OpenStreetMap","DATE_MAJ":"2020-11-20"}},
    {"type":"Feature","geometry":{"type":"Point","coordinates":[-6.8165627,33.9981357]},"properties":{"ID":"n2907754391","NATURE":"Bureau ou hôtel des postes","NOM":"Rabat Cite Youssoufia","SOURCE":"OpenStreetMap","DATE_MAJ":"2020-11-20"}},
    {"type":"Feature","geometry":{"type":"Point","coordinates":[-6.8500000000000005,34.016000000000005]},"properties":{"ID":"n2907754392","NATURE":"Bureau ou hôtel des postes","NOM":"Rabat Dar El Hadith","SOURCE":"OpenStreetMap","DATE_MAJ":"2022-10-16"}},
    {"type":"Feature","geometry":{"type":"Point","coordinates":[-6.8949834,33.9728386]},"properties":{"ID":"n2907754393","NATURE":"Bureau ou hôtel des postes","NOM":"Rabat El Menzeh","SOURCE":"OpenStreetMap","DATE_MAJ":"2021-09-29"}},
    {"type":"Feature","geometry":{"type":"Point","coordinates":[-6.885000000000001,33.940000000000005]},"properties":{"ID":"n2907754394","NATURE":"Bureau ou hôtel des postes","NOM":"Rabat Guich Oudaya","SOURCE":"OpenStreetMap","DATE_MAJ":"2022-10-10"}},
    {"type":"Feature","geometry":{"type":"Point","coordinates":[-6.831,34.005]},"properties":{"ID":"n2907754398","NATURE":"Bureau ou hôtel des postes","NOM":"Rabat Mechouar","SOURCE":"OpenStreetMap","DATE_MAJ":"2020-11-20"}},
    {"type":"Feature","geometry":{"type":"Point","coordinates":[-6.845000000000001,34.024]},"properties":{"ID":"n2907756701","NATURE":"Bureau ou hôtel des postes","NOM":"Rabat Ocean","SOURCE":"OpenStreetMap","DATE_MAJ":"2020-11-20"}},
    {"type":"Feature","geometry":{"type":"Point","coordinates":[-6.837008600000001,34.0200465]},"properties":{"ID":"n2907756702","NATURE":"Bureau ou hôtel des postes","NOM":"Rabat RP","SOURCE":"OpenStreetMap","DATE_MAJ":"2020-11-20"}},
    {"type":"Feature","geometry":{"type":"Point","coordinates":[-6.8602324,33.9632614]},"properties":{"ID":"n2907756703","NATURE":"Bureau ou hôtel des postes","NOM":"Poste Hay Riad","SOURCE":"OpenStreetMap","DATE_MAJ":"2020-11-20"}},
    {"type":"Feature","geometry":{"type":"Point","coordinates":[-6.8260000000000005,33.984]},"properties":{"ID":"n2907756704","NATURE":"Bureau ou hôtel des postes","NOM":"Rabat Souissi","SOURCE":"OpenStreetMap","DATE_MAJ":"2020-11-20"}},
    {"type":"Feature","geometry":{"type":"Point","coordinates":[-6.87,34.001000000000005]},"properties":{"ID":"n2907756705","NATURE":"Bureau ou hôtel des postes","NOM":"Rabat Yacoub El Mansour","SOURCE":"OpenStreetMap","DATE_MAJ":"2020-11-20"}},
    {"type":"Feature","geometry":{"type":"Point","coordinates":[-4.1338725,35.1400324]},"properties":{"ID":"n2907756713","NATURE":"Bureau ou hôtel des postes","NOM":"Rouadi","SOURCE":"OpenStreetMap","DATE_MAJ":"2016-02-17"}},
    {"type":"Feature","geometry":{"type":"Point","coordinates":[-9.2188196,32.2929927]},"properties":{"ID":"n2907756715","NATURE":"Bureau ou hôtel des postes","NOM":"Safi Azib Drai","SOURCE":"OpenStreetMap","DATE_MAJ":"2020-11-24"}},
    {"type":"Feature","geometry":{"type":"Point","coordinates":[-9.233,32.294000000000004]},"properties":{"ID":"n2907756718","NATURE":"Bureau ou hôtel des postes","NOM":"Safi PPAL","SOURCE":"OpenStreetMap","DATE_MAJ":"2020-11-24"}},
    {"type":"Feature","geometry":{"type":"Point","coordinates":[-9.248000000000001,32.256]},"properties":{"ID":"n2907756720","NATURE":"Bureau ou hôtel des postes","NOM":"Safi Sidi Ouassel","SOURCE":"OpenStreetMap","DATE_MAJ":"2020-11-24"}},
    {"type":"Feature","geometry":{"type":"Point","coordinates":[-7.1478213,31.8020223]},"properties":{"ID":"n2907756721","NATURE":"Bureau ou hôtel des postes","NOM":"Sahrij","SOURCE":"OpenStreetMap","DATE_MAJ":"2020-11-24"}},
    {"type":"Feature","geometry":{"type":"Point","coordinates":[-6.744000000000001,33.999]},"properties":{"ID":"n2907756724","NATURE":"Bureau ou hôtel des postes","NOM":"Sala Al Jadida","SOURCE":"OpenStreetMap","DATE_MAJ":"2020-11-20"}},
    {"type":"Feature","geometry":{"type":"Point","coordinates":[-6.827000000000001,34.042]},"properties":{"ID":"n2907756725","NATURE":"Bureau ou hôtel des postes","NOM":"Sale Bab Chaafa","SOURCE":"OpenStreetMap","DATE_MAJ":"2020-11-20"}},
    {"type":"Feature","geometry":{"type":"Point","coordinates":[-6.809,34.03]},"properties":{"ID":"n2907756726","NATURE":"Bureau ou hôtel des postes","NOM":"Sale Bettana","SOURCE":"OpenStreetMap","DATE_MAJ":"2020-11-20"}},
    {"type":"Feature","geometry":{"type":"Point","coordinates":[-6.793,34.041000000000004]},"properties":{"ID":"n2907756728","NATURE":"Bureau ou hôtel des postes","NOM":"Sale Hay Essalam","SOURCE":"OpenStreetMap","DATE_MAJ":"2020-11-20"}},
    {"type":"Feature","geometry":{"type":"Point","coordinates":[-6.7726978,34.0620435]},"properties":{"ID":"n2907756732","NATURE":"Bureau ou hôtel des postes","NOM":"Sale Layayda","SOURCE":"OpenStreetMap","DATE_MAJ":"2020-11-20"}},
    {"type":"Feature","geometry":{"type":"Point","coordinates":[-10.172,29.153000000000002]},"properties":{"ID":"n2907756736","NATURE":"Bureau ou hôtel des postes","NOM":"Sbouya","SOURCE":"OpenStreetMap","DATE_MAJ":"2016-02-17"}},
    {"type":"Feature","geometry":{"type":"Point","coordinates":[-5.1376075000000005,34.0389752]},"properties":{"ID":"n2907756737","NATURE":"Bureau ou hôtel des postes","NOM":"Sebaa Rouadi","SOURCE":"OpenStreetMap","DATE_MAJ":"2021-03-19"}},
    {"type":"Feature","geometry":{"type":"Point","coordinates":[-6.8215007000000005,32.9517715]},"properties":{"ID":"n2907756740","NATURE":"Bureau ou hôtel des postes","NOM":"Sebt Beni Yakhlef","SOURCE":"OpenStreetMap","DATE_MAJ":"2020-11-24"}},
    {"type":"Feature","geometry":{"type":"Point","coordinates":[-5.8325728,35.2578337]},"properties":{"ID":"n2907756742","NATURE":"Bureau ou hôtel des postes","NOM":"Sebt Bni Garfet","SOURCE":"OpenStreetMap","DATE_MAJ":"2019-01-14"}},
    {"type":"Feature","geometry":{"type":"Point","coordinates":[-9.085000500000001,32.1082684]},"properties":{"ID":"n2907756744","NATURE":"Bureau ou hôtel des postes","NOM":"Sebt Gzoula","SOURCE":"OpenStreetMap","DATE_MAJ":"2020-11-24"}},
    {"type":"Feature","geometry":{"type":"Point","coordinates":[-9.5376987,29.6486392]},"properties":{"ID":"n2907756746","NATURE":"Bureau ou hôtel des postes","NOM":"Sebt Ouijjane","SOURCE":"OpenStreetMap","DATE_MAJ":"2022-09-15"}},
    {"type":"Feature","geometry":{"type":"Point","coordinates":[-7.619000000000001,33.013000000000005]},"properties":{"ID":"n2907756755","NATURE":"Bureau ou hôtel des postes","NOM":"Settat Nafisse","SOURCE":"OpenStreetMap","DATE_MAJ":"2016-02-17"}},
    {"type":"Feature","geometry":{"type":"Point","coordinates":[-7.61,33.002]},"properties":{"ID":"n2907756756","NATURE":"Bureau ou hôtel des postes","NOM":"Settat Samir","SOURCE":"OpenStreetMap","DATE_MAJ":"2016-02-17"}},
    {"type":"Feature","geometry":{"type":"Point","coordinates":[-6.165,33.963]},"properties":{"ID":"n2907756757","NATURE":"Bureau ou hôtel des postes","NOM":"Sidi Abderrazak","SOURCE":"OpenStreetMap","DATE_MAJ":"2020-11-20"}},
    {"type":"Feature","geometry":{"type":"Point","coordinates":[-5.3323956,33.3963656]},"properties":{"ID":"n2907756758","NATURE":"Bureau ou hôtel des postes","NOM":"Sidi Addi","SOURCE":"OpenStreetMap","DATE_MAJ":"2016-03-08"}},
    {"type":"Feature","geometry":{"type":"Point","coordinates":[-8.4921843,32.2104979]},"properties":{"ID":"n2907756760","NATURE":"Bureau ou hôtel des postes","NOM":"Sidi Ahmed","SOURCE":"OpenStreetMap","DATE_MAJ":"2020-11-24"}},
    {"type":"Feature","geometry":{"type":"Point","coordinates":[-6.533,34.011]},"properties":{"ID":"n2907756761","NATURE":"Bureau ou hôtel des postes","NOM":"Sidi Allal El Bahraoui","SOURCE":"OpenStreetMap","DATE_MAJ":"2020-11-20"}},
    {"type":"Feature","geometry":{"type":"Point","coordinates":[-6.1494247,33.8731591]},"properties":{"ID":"n2907756762","NATURE":"Bureau ou hôtel des postes","NOM":"Sidi Allal Lamsadder","SOURCE":"OpenStreetMap","DATE_MAJ":"2022-03-30"}},
    {"type":"Feature","geometry":{"type":"Point","coordinates":[-8.4249237,32.6503336]},"properties":{"ID":"n2907756763","NATURE":"Bureau ou hôtel des postes","NOM":"Sidi Bennour Al Massira","SOURCE":"OpenStreetMap","DATE_MAJ":"2016-02-17"}},
    {"type":"Feature","geometry":{"type":"Point","coordinates":[-2.3631415000000002,34.739130700000004]},"properties":{"ID":"n2907756766","NATURE":"Bureau ou hôtel des postes","NOM":"Sidi Bouhouria","SOURCE":"OpenStreetMap","DATE_MAJ":"2018-12-10"}},
    {"type":"Feature","geometry":{"type":"Point","coordinates":[-8.55,33.229]},"properties":{"ID":"n2907756768","NATURE":"Bureau ou hôtel des postes","NOM":"Sidi Bouzid","SOURCE":"OpenStreetMap","DATE_MAJ":"2016-02-17"}},
    {"type":"Feature","geometry":{"type":"Point","coordinates":[-4.8813417,34.0232851]},"properties":{"ID":"n2907756769","NATURE":"Bureau ou hôtel des postes","NOM":"Sidi Harazem","SOURCE":"OpenStreetMap","DATE_MAJ":"2016-02-17"}},
    {"type":"Feature","geometry":{"type":"Point","coordinates":[-6.4531235,32.3699225]},"properties":{"ID":"n2907756770","NATURE":"Bureau ou hôtel des postes","NOM":"Sidi Jaber","SOURCE":"OpenStreetMap","DATE_MAJ":"2020-11-24"}},
    {"type":"Feature","geometry":{"type":"Point","coordinates":[-5.7090000000000005,34.234]},"properties":{"ID":"n2907756774","NATURE":"Bureau ou hôtel des postes","NOM":"Sidi Kacem","SOURCE":"OpenStreetMap","DATE_MAJ":"2020-11-20"}},
    {"type":"Feature","geometry":{"type":"Point","coordinates":[-7.6582805,33.5092012]},"properties":{"ID":"n2907756775","NATURE":"Bureau ou hôtel des postes","NOM":"Sidi Maarouf","SOURCE":"OpenStreetMap","DATE_MAJ":"2018-05-28"}},
    {"type":"Feature","geometry":{"type":"Point","coordinates":[-9.0147432,31.5789632]},"properties":{"ID":"n2907756776","NATURE":"Bureau ou hôtel des postes","NOM":"Sidi Mokhtar","SOURCE":"OpenStreetMap","DATE_MAJ":"2020-11-24"}},
    {"type":"Feature","geometry":{"type":"Point","coordinates":[-7.3820408,33.559081]},"properties":{"ID":"n2907756777","NATURE":"Bureau ou hôtel des postes","NOM":"Sidi Moussa Ben Ali","SOURCE":"OpenStreetMap","DATE_MAJ":"2016-02-17"}},
    {"type":"Feature","geometry":{"type":"Point","coordinates":[-5.4486375,34.6840216]},"properties":{"ID":"n2907756780","NATURE":"Bureau ou hôtel des postes","NOM":"Sidi Redouane","SOURCE":"OpenStreetMap","DATE_MAJ":"2016-02-17"}},
    {"type":"Feature","geometry":{"type":"Point","coordinates":[-5.913,34.260000000000005]},"properties":{"ID":"n2907756781","NATURE":"Bureau ou hôtel des postes","NOM":"Sidi Slimane Hay Al Masjid","SOURCE":"OpenStreetMap","DATE_MAJ":"2020-11-20"}},
    {"type":"Feature","geometry":{"type":"Point","coordinates":[-6.921,33.828]},"properties":{"ID":"n2907756785","NATURE":"Bureau ou hôtel des postes","NOM":"Sidi Yahia Zaers","SOURCE":"OpenStreetMap","DATE_MAJ":"2020-11-20"}},
    {"type":"Feature","geometry":{"type":"Point","coordinates":[-8.3505003,31.6640197]},"properties":{"ID":"n2907756787","NATURE":"Bureau ou hôtel des postes","NOM":"Sidi Zouine","SOURCE":"OpenStreetMap","DATE_MAJ":"2021-02-06"}},
    {"type":"Feature","geometry":{"type":"Point","coordinates":[-7.915363900000001,32.4825225]},"properties":{"ID":"n2907756788","NATURE":"Bureau ou hôtel des postes","NOM":"Skhour Rehamna","SOURCE":"OpenStreetMap","DATE_MAJ":"2020-11-24"}},
    {"type":"Feature","geometry":{"type":"Point","coordinates":[-6.557723200000001,31.060017700000003]},"properties":{"ID":"n2907756789","NATURE":"Bureau ou hôtel des postes","NOM":"Skoura Ahl Al Oust","SOURCE":"OpenStreetMap","DATE_MAJ":"2020-11-23"}},
    {"type":"Feature","geometry":{"type":"Point","coordinates":[-4.5448316,33.5192953]},"properties":{"ID":"n2907756790","NATURE":"Bureau ou hôtel des postes","NOM":"Skoura Seghrouchen","SOURCE":"OpenStreetMap","DATE_MAJ":"2016-02-17"}},
    {"type":"Feature","geometry":{"type":"Point","coordinates":[-9.704274400000001,31.2090913]},"properties":{"ID":"n2907756791","NATURE":"Bureau ou hôtel des postes","NOM":"Smimou","SOURCE":"OpenStreetMap","DATE_MAJ":"2020-11-24"}},
    {"type":"Feature","geometry":{"type":"Point","coordinates":[-7.3282498,33.4461719]},"properties":{"ID":"n2907756792","NATURE":"Bureau ou hôtel des postes","NOM":"Soualem Et Tirs","SOURCE":"OpenStreetMap","DATE_MAJ":"2016-02-17"}},
    {"type":"Feature","geometry":{"type":"Point","coordinates":[-5.490396400000001,33.2918308]},"properties":{"ID":"n2907756794","NATURE":"Bureau ou hôtel des postes","NOM":"Souk El Had Oued Ifrane","SOURCE":"OpenStreetMap","DATE_MAJ":"2020-11-24"}},
    {"type":"Feature","geometry":{"type":"Point","coordinates":[-6.4211302,31.6584201]},"properties":{"ID":"n2907756799","NATURE":"Bureau ou hôtel des postes","NOM":"Tabannt","SOURCE":"OpenStreetMap","DATE_MAJ":"2020-11-24"}},
    {"type":"Feature","geometry":{"type":"Point","coordinates":[-6.4743085,32.8341665]},"properties":{"ID":"n2907757001","NATURE":"Bureau ou hôtel des postes","NOM":"Tachreft","SOURCE":"OpenStreetMap","DATE_MAJ":"2020-11-24"}},
    {"type":"Feature","geometry":{"type":"Point","coordinates":[-4.9598719000000004,31.819396100000002]},"properties":{"ID":"n2907757002","NATURE":"Bureau ou hôtel des postes","NOM":"Tadirhoust","SOURCE":"OpenStreetMap","DATE_MAJ":"2020-11-23"}},
    {"type":"Feature","geometry":{"type":"Point","coordinates":[-8.9747801,29.720357900000003]},"properties":{"ID":"n2907757007","NATURE":"Bureau ou hôtel des postes","NOM":"Tafraoute","SOURCE":"OpenStreetMap","DATE_MAJ":"2022-09-12"}},
    {"type":"Feature","geometry":{"type":"Point","coordinates":[-9.255855500000001,31.582573900000003]},"properties":{"ID":"n2907757008","NATURE":"Bureau ou hôtel des postes","NOM":"Taftecht","SOURCE":"OpenStreetMap","DATE_MAJ":"2020-11-24"}},
    {"type":"Feature","geometry":{"type":"Point","coordinates":[-5.582964400000001,29.9798532]},"properties":{"ID":"n2907757010","NATURE":"Bureau ou hôtel des postes","NOM":"","SOURCE":"OpenStreetMap","DATE_MAJ":"2020-11-23"}},
    {"type":"Feature","geometry":{"type":"Point","coordinates":[-6.1205504,32.237833800000004]},"properties":{"ID":"n2907757011","NATURE":"Bureau ou hôtel des postes","NOM":"Taguelft","SOURCE":"OpenStreetMap","DATE_MAJ":"2020-11-24"}},
    {"type":"Feature","geometry":{"type":"Point","coordinates":[-4.423795,34.050568600000005]},"properties":{"ID":"n2907757012","NATURE":"Bureau ou hôtel des postes","NOM":"Tahala تاهلة","SOURCE":"OpenStreetMap","DATE_MAJ":"2022-03-30"}},
    {"type":"Feature","geometry":{"type":"Point","coordinates":[-4.1354844,34.5571599]},"properties":{"ID":"n2907757015","NATURE":"Bureau ou hôtel des postes","NOM":"Taineste","SOURCE":"OpenStreetMap","DATE_MAJ":"2016-02-17"}},
    {"type":"Feature","geometry":{"type":"Point","coordinates":[-9.3395978,31.814426800000003]},"properties":{"ID":"n2907757017","NATURE":"Bureau ou hôtel des postes","NOM":"Talmest","SOURCE":"OpenStreetMap","DATE_MAJ":"2020-11-24"}},
    {"type":"Feature","geometry":{"type":"Point","coordinates":[-3.4393172,32.5353964]},"properties":{"ID":"n2907757019","NATURE":"Bureau ou hôtel des postes","NOM":"Talsinnt","SOURCE":"OpenStreetMap","DATE_MAJ":"2020-11-03"}},
    {"type":"Feature","geometry":{"type":"Point","coordinates":[-8.093,31.494000000000003]},"properties":{"ID":"n2907757021","NATURE":"Bureau ou hôtel des postes","NOM":"Tameslouhte","SOURCE":"OpenStreetMap","DATE_MAJ":"2020-11-24"}},
    {"type":"Feature","geometry":{"type":"Point","coordinates":[-9.82611,30.695327900000002]},"properties":{"ID":"n2907757022","NATURE":"Bureau ou hôtel des postes","NOM":"Tamri","SOURCE":"OpenStreetMap","DATE_MAJ":"2017-06-08"}},
    {"type":"Feature","geometry":{"type":"Point","coordinates":[-11.10711,28.439676900000002]},"properties":{"ID":"n2907757023","NATURE":"Bureau ou hôtel des postes","NOM":"Tan Tan Cite Administrative","SOURCE":"OpenStreetMap","DATE_MAJ":"2020-11-27"}},
    {"type":"Feature","geometry":{"type":"Point","coordinates":[-5.417000000000001,31.457]},"properties":{"ID":"n2907757044","NATURE":"Bureau ou hôtel des postes","NOM":"Tarhzoute Nait Atta","SOURCE":"OpenStreetMap","DATE_MAJ":"2020-11-23"}},
    {"type":"Feature","geometry":{"type":"Point","coordinates":[-8.8669276,30.4719434]},"properties":{"ID":"n2907757045","NATURE":"Bureau ou hôtel des postes","NOM":"Taroudannt","SOURCE":"OpenStreetMap","DATE_MAJ":"2017-04-07"}},
    {"type":"Feature","geometry":{"type":"Point","coordinates":[-5.564351800000001,30.782235000000004]},"properties":{"ID":"n2907757053","NATURE":"Bureau ou hôtel des postes","NOM":"Tazzarine","SOURCE":"OpenStreetMap","DATE_MAJ":"2020-11-23"}},
    {"type":"Feature","geometry":{"type":"Point","coordinates":[-6.9350000000000005,33.919000000000004]},"properties":{"ID":"n2907757054","NATURE":"Bureau ou hôtel des postes","NOM":"Temara Al Wifak","SOURCE":"OpenStreetMap","DATE_MAJ":"2020-11-20"}},
    {"type":"Feature","geometry":{"type":"Point","coordinates":[-6.920000000000001,33.906]},"properties":{"ID":"n2907757056","NATURE":"Bureau ou hôtel des postes","NOM":"Temara Fath El Kheir","SOURCE":"OpenStreetMap","DATE_MAJ":"2020-11-20"}},
    {"type":"Feature","geometry":{"type":"Point","coordinates":[-6.889922400000001,33.9198473]},"properties":{"ID":"n2907757057","NATURE":"Bureau ou hôtel des postes","NOM":"Temara Hay Maghrib Al Arabi","SOURCE":"OpenStreetMap","DATE_MAJ":"2022-10-07"}},
    {"type":"Feature","geometry":{"type":"Point","coordinates":[-6.898000000000001,33.927]},"properties":{"ID":"n2907757058","NATURE":"Bureau ou hôtel des postes","NOM":"Temara Massira","SOURCE":"OpenStreetMap","DATE_MAJ":"2020-11-20"}},
    {"type":"Feature","geometry":{"type":"Point","coordinates":[-9.4150466,30.365256700000003]},"properties":{"ID":"n2907757059","NATURE":"Bureau ou hôtel des postes","NOM":"Temsia","SOURCE":"OpenStreetMap","DATE_MAJ":"2020-12-11"}},
    {"type":"Feature","geometry":{"type":"Point","coordinates":[-5.363295300000001,35.564670400000004]},"properties":{"ID":"n2907757063","NATURE":"Bureau ou hôtel des postes","NOM":"Tetouan Mhanech","SOURCE":"OpenStreetMap","DATE_MAJ":"2017-01-27"}},
    {"type":"Feature","geometry":{"type":"Point","coordinates":[-5.381186100000001,35.574731]},"properties":{"ID":"n2907757066","NATURE":"Bureau ou hôtel des postes","NOM":"Tetouan Sidi Talha","SOURCE":"OpenStreetMap","DATE_MAJ":"2016-02-17"}},
    {"type":"Feature","geometry":{"type":"Point","coordinates":[-5.4,35.568000000000005]},"properties":{"ID":"n2907757067","NATURE":"Bureau ou hôtel des postes","NOM":"Tetouan Taboula","SOURCE":"OpenStreetMap","DATE_MAJ":"2016-02-17"}},
    {"type":"Feature","geometry":{"type":"Point","coordinates":[-5.346,35.581]},"properties":{"ID":"n2907757068","NATURE":"Bureau ou hôtel des postes","NOM":"Tetouan Touabel","SOURCE":"OpenStreetMap","DATE_MAJ":"2016-02-17"}},
    {"type":"Feature","geometry":{"type":"Point","coordinates":[-5.3561717,35.580503300000004]},"properties":{"ID":"n2907757069","NATURE":"Bureau ou hôtel des postes","NOM":"Tetouan Touilaa","SOURCE":"OpenStreetMap","DATE_MAJ":"2016-02-17"}},
    {"type":"Feature","geometry":{"type":"Point","coordinates":[-5.3045838000000005,35.6065494]},"properties":{"ID":"n2907757070","NATURE":"Bureau ou hôtel des postes","NOM":"Tetouan Zone Industrielle","SOURCE":"OpenStreetMap","DATE_MAJ":"2019-10-24"}},
    {"type":"Feature","geometry":{"type":"Point","coordinates":[-6.2668881,33.566270700000004]},"properties":{"ID":"n2907757071","NATURE":"Bureau ou hôtel des postes","NOM":"Tiddas","SOURCE":"OpenStreetMap","DATE_MAJ":"2020-11-20"}},
    {"type":"Feature","geometry":{"type":"Point","coordinates":[-6.321000000000001,33.886]},"properties":{"ID":"n2907757072","NATURE":"Bureau ou hôtel des postes","NOM":"Tiflet PPAL","SOURCE":"OpenStreetMap","DATE_MAJ":"2020-11-20"}},
    {"type":"Feature","geometry":{"type":"Point","coordinates":[-5.6570347000000005,32.7823104]},"properties":{"ID":"n2907757073","NATURE":"Bureau ou hôtel des postes","NOM":"Tighessaline","SOURCE":"OpenStreetMap","DATE_MAJ":"2020-11-24"}},
    {"type":"Feature","geometry":{"type":"Point","coordinates":[-9.5032472,30.377108600000003]},"properties":{"ID":"n2907757074","NATURE":"Bureau ou hôtel des postes","NOM":"Tikiouine","SOURCE":"OpenStreetMap","DATE_MAJ":"2016-02-01"}},
    {"type":"Feature","geometry":{"type":"Point","coordinates":[-6.2105236,32.0297426]},"properties":{"ID":"n2907757075","NATURE":"Bureau ou hôtel des postes","NOM":"Tilougguite","SOURCE":"OpenStreetMap","DATE_MAJ":"2020-11-24"}},
    {"type":"Feature","geometry":{"type":"Point","coordinates":[-5.059521500000001,33.237313300000004]},"properties":{"ID":"n2907757077","NATURE":"Bureau ou hôtel des postes","NOM":"Timahdite","SOURCE":"OpenStreetMap","DATE_MAJ":"2018-06-15"}},
    {"type":"Feature","geometry":{"type":"Point","coordinates":[-9.5692672,29.167315000000002]},"properties":{"ID":"n2907757078","NATURE":"Bureau ou hôtel des postes","NOM":"Timoulay","SOURCE":"OpenStreetMap","DATE_MAJ":"2022-09-15"}},
    {"type":"Feature","geometry":{"type":"Point","coordinates":[-5.0296253,31.5102949]},"properties":{"ID":"n2907757080","NATURE":"Bureau ou hôtel des postes","NOM":"Tinejdad","SOURCE":"OpenStreetMap","DATE_MAJ":"2020-11-23"}},
    {"type":"Feature","geometry":{"type":"Point","coordinates":[-4.661004500000001,34.2866604]},"properties":{"ID":"n2907757084","NATURE":"Bureau ou hôtel des postes","NOM":"Tissa","SOURCE":"OpenStreetMap","DATE_MAJ":"2022-08-12"}},
    {"type":"Feature","geometry":{"type":"Point","coordinates":[-7.484000000000001,33.556000000000004]},"properties":{"ID":"n2907757086","NATURE":"Bureau ou hôtel des postes","NOM":"Tit Mellil","SOURCE":"OpenStreetMap","DATE_MAJ":"2016-02-17"}},
    {"type":"Feature","geometry":{"type":"Point","coordinates":[-8.3180686,31.2453496]},"properties":{"ID":"n2907757087","NATURE":"Bureau ou hôtel des postes","NOM":"Tizguine","SOURCE":"OpenStreetMap","DATE_MAJ":"2020-11-24"}},
    {"type":"Feature","geometry":{"type":"Point","coordinates":[-3.7947755,34.762235600000004]},"properties":{"ID":"n2907757088","NATURE":"Bureau ou hôtel des postes","NOM":"Tizi Ouzli","SOURCE":"OpenStreetMap","DATE_MAJ":"2016-02-15"}},
    {"type":"Feature","geometry":{"type":"Point","coordinates":[-9.433069300000001,31.520771300000003]},"properties":{"ID":"n2907757092","NATURE":"Bureau ou hôtel des postes","NOM":"Tlata Hanchane","SOURCE":"OpenStreetMap","DATE_MAJ":"2020-11-24"}},
    {"type":"Feature","geometry":{"type":"Point","coordinates":[-6.3819699000000005,32.8992376]},"properties":{"ID":"n2907757094","NATURE":"Bureau ou hôtel des postes","NOM":"Tleta Chougrane","SOURCE":"OpenStreetMap","DATE_MAJ":"2020-11-24"}},
    {"type":"Feature","geometry":{"type":"Point","coordinates":[-10.01,29.287000000000003]},"properties":{"ID":"n2907757201","NATURE":"Bureau ou hôtel des postes","NOM":"Tnine Amellou","SOURCE":"OpenStreetMap","DATE_MAJ":"2016-02-17"}},
    {"type":"Feature","geometry":{"type":"Point","coordinates":[-9.0148407,30.063219]},"properties":{"ID":"n2907757204","NATURE":"Bureau ou hôtel des postes","NOM":"Tnine Hilala","SOURCE":"OpenStreetMap","DATE_MAJ":"2020-10-29"}},
    {"type":"Feature","geometry":{"type":"Point","coordinates":[-5.2490448,33.9770711]},"properties":{"ID":"n2907757205","NATURE":"Bureau ou hôtel des postes","NOM":"Tnine Mhaya","SOURCE":"OpenStreetMap","DATE_MAJ":"2018-06-03"}},
    {"type":"Feature","geometry":{"type":"Point","coordinates":[-8.251000000000001,31.634]},"properties":{"ID":"n2907757206","NATURE":"Bureau ou hôtel des postes","NOM":"Tnine Oudaya","SOURCE":"OpenStreetMap","DATE_MAJ":"2019-03-28"}},
    {"type":"Feature","geometry":{"type":"Point","coordinates":[-6.587250600000001,31.272193100000003]},"properties":{"ID":"n2907757212","NATURE":"Bureau ou hôtel des postes","NOM":"Toundoute","SOURCE":"OpenStreetMap","DATE_MAJ":"2020-12-27"}},
    {"type":"Feature","geometry":{"type":"Point","coordinates":[-5.2430499,32.4710787]},"properties":{"ID":"n2907757213","NATURE":"Bureau ou hôtel des postes","NOM":"Tounfite","SOURCE":"OpenStreetMap","DATE_MAJ":"2020-11-23"}},
    {"type":"Feature","geometry":{"type":"Point","coordinates":[-8.5352,32.2533]},"properties":{"ID":"n2907757214","NATURE":"Bureau ou hôtel des postes","NOM":"Youssoufia Al Qods","SOURCE":"OpenStreetMap","DATE_MAJ":"2020-11-24"}},
    {"type":"Feature","geometry":{"type":"Point","coordinates":[-8.5347,32.243500000000004]},"properties":{"ID":"n2907757215","NATURE":"Bureau ou hôtel des postes","NOM":"Youssoufia","SOURCE":"OpenStreetMap","DATE_MAJ":"2020-11-24"}},
    {"type":"Feature","geometry":{"type":"Point","coordinates":[-2.7339798,34.941610000000004]},"properties":{"ID":"n2907757216","NATURE":"Bureau ou hôtel des postes","NOM":"Zaïo","SOURCE":"OpenStreetMap","DATE_MAJ":"2016-12-18"}},
    {"type":"Feature","geometry":{"type":"Point","coordinates":[-6.1061079000000005,31.8339989]},"properties":{"ID":"n2907757217","NATURE":"Bureau ou hôtel des postes","NOM":"Zaouia Ahensal","SOURCE":"OpenStreetMap","DATE_MAJ":"2023-02-17"}},
    {"type":"Feature","geometry":{"type":"Point","coordinates":[-1.7206337,34.475558500000005]},"properties":{"ID":"n2907757219","NATURE":"Bureau ou hôtel des postes","NOM":"Zellidja Boubker زليجة أبو بكر","SOURCE":"OpenStreetMap","DATE_MAJ":"2020-12-15"}},
    {"type":"Feature","geometry":{"type":"Point","coordinates":[-4.3790000000000004,33.975]},"properties":{"ID":"n2907757220","NATURE":"Bureau ou hôtel des postes","NOM":"Zerarda","SOURCE":"OpenStreetMap","DATE_MAJ":"2016-02-17"}},
    {"type":"Feature","geometry":{"type":"Point","coordinates":[-4.2074365,31.6522429]},"properties":{"ID":"n2907757223","NATURE":"Bureau ou hôtel des postes","NOM":"Zrigate","SOURCE":"OpenStreetMap","DATE_MAJ":"2022-01-15"}},
    {"type":"Feature","geometry":{"type":"Point","coordinates":[-6.531270500000001,32.2121887]},"properties":{"ID":"n2907759901","NATURE":"Bureau ou hôtel des postes","NOM":"Poste Afourer","SOURCE":"OpenStreetMap","DATE_MAJ":"2020-11-24"}},
    {"type":"Feature","geometry":{"type":"Point","coordinates":[-9.5835,30.425]},"properties":{"ID":"n2907759904","NATURE":"Bureau ou hôtel des postes","NOM":"Agadir Cite Sidi Mohamed","SOURCE":"OpenStreetMap","DATE_MAJ":"2016-02-17"}},
    {"type":"Feature","geometry":{"type":"Point","coordinates":[-9.556766300000001,30.411187400000003]},"properties":{"ID":"n2907759907","NATURE":"Bureau ou hôtel des postes","NOM":"Agadir Hay Dakhla","SOURCE":"OpenStreetMap","DATE_MAJ":"2017-09-07"}},
    {"type":"Feature","geometry":{"type":"Point","coordinates":[-5.5895696,33.645107100000004]},"properties":{"ID":"n2907759914","NATURE":"Bureau ou hôtel des postes","NOM":"Agourai","SOURCE":"OpenStreetMap","DATE_MAJ":"2018-12-16"}},
    {"type":"Feature","geometry":{"type":"Point","coordinates":[-4.6889345,34.462228200000006]},